[{"name":"Yernes y Tameza","state_name":"Asturias","latitude":"0.00000000","longitude":"0.00000000"},{"name":"Adanero","state_name":"Ávila","latitude":"40.94487000","longitude":"-4.60561000"},{"name":"Adrada La","state_name":"Ávila","latitude":"0.00000000","longitude":"0.00000000"},{"name":"Albornos","state_name":"Ávila","latitude":"40.83795000","longitude":"-4.88129000"},{"name":"Aldeanueva de Santa Cruz","state_name":"Ávila","latitude":"40.38189000","longitude":"-5.42142000"},{"name":"Aldeaseca","state_name":"Ávila","latitude":"41.04912000","longitude":"-4.81707000"},{"name":"Aldehuela La","state_name":"Ávila","latitude":"0.00000000","longitude":"0.00000000"},{"name":"Amavida","state_name":"Ávila","latitude":"40.57371000","longitude":"-5.06541000"},{"name":"Arenal El","state_name":"Ávila","latitude":"0.00000000","longitude":"0.00000000"},{"name":"Arenas de San Pedro","state_name":"Ávila","latitude":"40.21041000","longitude":"-5.08694000"},{"name":"Arevalillo","state_name":"Ávila","latitude":"0.00000000","longitude":"0.00000000"},{"name":"Arévalo","state_name":"Ávila","latitude":"41.06255000","longitude":"-4.72042000"},{"name":"Aveinte","state_name":"Ávila","latitude":"40.78227000","longitude":"-4.83649000"},{"name":"Avellaneda","state_name":"Ávila","latitude":"40.38909000","longitude":"-5.38811000"},{"name":"Ávila","state_name":"Ávila","latitude":"40.65724000","longitude":"-4.69951000"},{"name":"Barco de Ávila El","state_name":"Ávila","latitude":"0.00000000","longitude":"0.00000000"},{"name":"Barraco El","state_name":"Ávila","latitude":"0.00000000","longitude":"0.00000000"},{"name":"Barromán","state_name":"Ávila","latitude":"41.06536000","longitude":"-4.93066000"},{"name":"Becedas","state_name":"Ávila","latitude":"40.40369000","longitude":"-5.63577000"},{"name":"Becedillas","state_name":"Ávila","latitude":"40.53821000","longitude":"-5.32561000"},{"name":"Bercial de Zapardiel","state_name":"Ávila","latitude":"41.04675000","longitude":"-4.96910000"},{"name":"Berlanas Las","state_name":"Ávila","latitude":"0.00000000","longitude":"0.00000000"},{"name":"Bernuy-Zapardiel","state_name":"Ávila","latitude":"0.00000000","longitude":"0.00000000"},{"name":"Berrocalejo de Aragona","state_name":"Ávila","latitude":"40.69436000","longitude":"-4.59474000"},{"name":"Blascomillán","state_name":"Ávila","latitude":"40.80146000","longitude":"-5.08703000"},{"name":"Blasconuño de Matacabras","state_name":"Ávila","latitude":"0.00000000","longitude":"0.00000000"},{"name":"Blascosancho","state_name":"Ávila","latitude":"40.87744000","longitude":"-4.63743000"},{"name":"Bohodón El","state_name":"Ávila","latitude":"0.00000000","longitude":"0.00000000"},{"name":"Bohoyo","state_name":"Ávila","latitude":"40.31584000","longitude":"-5.44294000"},{"name":"Bonilla de la Sierra","state_name":"Ávila","latitude":"40.53063000","longitude":"-5.26452000"},{"name":"Brabos","state_name":"Ávila","latitude":"40.77846000","longitude":"-4.93934000"},{"name":"Bularros","state_name":"Ávila","latitude":"0.00000000","longitude":"0.00000000"},{"name":"Burgohondo","state_name":"Ávila","latitude":"40.41416000","longitude":"-4.78509000"},{"name":"Cabezas de Alambre","state_name":"Ávila","latitude":"40.94218000","longitude":"-4.84184000"},{"name":"Cabezas del Pozo","state_name":"Ávila","latitude":"41.00139000","longitude":"-4.95453000"},{"name":"Cabezas del Villar","state_name":"Ávila","latitude":"40.71557000","longitude":"-5.20956000"},{"name":"Cabizuela","state_name":"Ávila","latitude":"40.90090000","longitude":"-4.80212000"},{"name":"Canales","state_name":"Ávila","latitude":"41.00331000","longitude":"-4.90163000"},{"name":"Candeleda","state_name":"Ávila","latitude":"40.15521000","longitude":"-5.24045000"},{"name":"Cantiveros","state_name":"Ávila","latitude":"40.95215000","longitude":"-4.95455000"},{"name":"Cardeñosa","state_name":"Ávila","latitude":"40.74240000","longitude":"-4.74579000"},{"name":"Carrera La","state_name":"Ávila","latitude":"0.00000000","longitude":"0.00000000"},{"name":"Casas del Puerto","state_name":"Ávila","latitude":"0.00000000","longitude":"0.00000000"},{"name":"Casasola","state_name":"Ávila","latitude":"0.00000000","longitude":"0.00000000"},{"name":"Casavieja","state_name":"Ávila","latitude":"40.28325000","longitude":"-4.76670000"},{"name":"Casillas","state_name":"Ávila","latitude":"40.32610000","longitude":"-4.57182000"},{"name":"Castellanos de Zapardiel","state_name":"Ávila","latitude":"41.08450000","longitude":"-4.90984000"},{"name":"Cebreros","state_name":"Ávila","latitude":"40.45835000","longitude":"-4.46433000"},{"name":"Cepeda la Mora","state_name":"Ávila","latitude":"40.45780000","longitude":"-5.04833000"},{"name":"Chamartín","state_name":"Ávila","latitude":"40.70267000","longitude":"-4.95769000"},{"name":"Chamartín","state_name":"Ávila","latitude":"40.46206000","longitude":"-3.67660000"},{"name":"Cillán","state_name":"Ávila","latitude":"40.70675000","longitude":"-4.98135000"},{"name":"Cisla","state_name":"Ávila","latitude":"40.96662000","longitude":"-5.01405000"},{"name":"Colilla La","state_name":"Ávila","latitude":"0.00000000","longitude":"0.00000000"},{"name":"Collado de Contreras","state_name":"Ávila","latitude":"40.88743000","longitude":"-4.93140000"},{"name":"Collado del Mirón","state_name":"Ávila","latitude":"40.55307000","longitude":"-5.35398000"},{"name":"Constanzana","state_name":"Ávila","latitude":"40.93821000","longitude":"-4.87515000"},{"name":"Crespos","state_name":"Ávila","latitude":"40.87128000","longitude":"-4.97094000"},{"name":"Cuevas del Valle","state_name":"Ávila","latitude":"40.29418000","longitude":"-5.00938000"},{"name":"Diego del Carpio","state_name":"Ávila","latitude":"0.00000000","longitude":"0.00000000"},{"name":"Donjimeno","state_name":"Ávila","latitude":"40.95978000","longitude":"-4.84627000"},{"name":"Donvidas","state_name":"Ávila","latitude":"41.08954000","longitude":"-4.80634000"},{"name":"Espinosa de los Caballeros","state_name":"Ávila","latitude":"0.00000000","longitude":"0.00000000"},{"name":"Flores de Ávila","state_name":"Ávila","latitude":"40.93358000","longitude":"-5.07914000"},{"name":"Fontiveros","state_name":"Ávila","latitude":"40.92997000","longitude":"-4.96445000"},{"name":"Fresnedilla","state_name":"Ávila","latitude":"40.23233000","longitude":"-4.62201000"},{"name":"Fresno El","state_name":"Ávila","latitude":"0.00000000","longitude":"0.00000000"},{"name":"Fuente el Saúz","state_name":"Ávila","latitude":"0.00000000","longitude":"0.00000000"},{"name":"Fuentes de Año","state_name":"Ávila","latitude":"41.01769000","longitude":"-4.89907000"},{"name":"Gallegos de Altamiros","state_name":"Ávila","latitude":"0.00000000","longitude":"0.00000000"},{"name":"Gallegos de Sobrinos","state_name":"Ávila","latitude":"40.71693000","longitude":"-5.11224000"},{"name":"Garganta del Villar","state_name":"Ávila","latitude":"40.44965000","longitude":"-5.10420000"},{"name":"Gavilanes","state_name":"Ávila","latitude":"40.27791000","longitude":"-4.85321000"},{"name":"Gemuño","state_name":"Ávila","latitude":"40.59159000","longitude":"-4.78178000"},{"name":"Gil García","state_name":"Ávila","latitude":"0.00000000","longitude":"0.00000000"},{"name":"Gilbuena","state_name":"Ávila","latitude":"0.00000000","longitude":"0.00000000"},{"name":"Gimialcón","state_name":"Ávila","latitude":"40.87705000","longitude":"-5.12308000"},{"name":"Gotarrendura","state_name":"Ávila","latitude":"40.82652000","longitude":"-4.74090000"},{"name":"Grandes y San Martín","state_name":"Ávila","latitude":"0.00000000","longitude":"0.00000000"},{"name":"Guisando","state_name":"Ávila","latitude":"40.22225000","longitude":"-5.13950000"},{"name":"Gutierre-Muñoz","state_name":"Ávila","latitude":"40.98295000","longitude":"-4.63839000"},{"name":"Hernansancho","state_name":"Ávila","latitude":"40.85753000","longitude":"-4.73045000"},{"name":"Herradón de Pinares","state_name":"Ávila","latitude":"0.00000000","longitude":"0.00000000"},{"name":"Herreros de Suso","state_name":"Ávila","latitude":"40.80361000","longitude":"-5.03892000"},{"name":"Higuera de las Dueñas","state_name":"Ávila","latitude":"40.23903000","longitude":"-4.60361000"},{"name":"Hija de Dios La","state_name":"Ávila","latitude":"0.00000000","longitude":"0.00000000"},{"name":"Horcajada La","state_name":"Ávila","latitude":"0.00000000","longitude":"0.00000000"},{"name":"Horcajo de las Torres","state_name":"Ávila","latitude":"41.06497000","longitude":"-5.09092000"},{"name":"Hornillo El","state_name":"Ávila","latitude":"0.00000000","longitude":"0.00000000"},{"name":"Hoyo de Pinares El","state_name":"Ávila","latitude":"0.00000000","longitude":"0.00000000"},{"name":"Hoyocasero","state_name":"Ávila","latitude":"40.39890000","longitude":"-4.97455000"},{"name":"Hoyorredondo","state_name":"Ávila","latitude":"40.46270000","longitude":"-5.41097000"},{"name":"Hoyos de Miguel Muñoz","state_name":"Ávila","latitude":"40.39237000","longitude":"-5.06713000"},{"name":"Hoyos del Collado","state_name":"Ávila","latitude":"40.35945000","longitude":"-5.20027000"},{"name":"Hoyos del Espino","state_name":"Ávila","latitude":"40.35623000","longitude":"-5.17505000"},{"name":"Hurtumpascual","state_name":"Ávila","latitude":"40.69200000","longitude":"-5.11379000"},{"name":"Junciana","state_name":"Ávila","latitude":"40.41076000","longitude":"-5.55698000"},{"name":"Langa","state_name":"Ávila","latitude":"41.00550000","longitude":"-4.85946000"},{"name":"Lanzahíta","state_name":"Ávila","latitude":"0.00000000","longitude":"0.00000000"},{"name":"Llanos de Tormes Los","state_name":"Ávila","latitude":"0.00000000","longitude":"0.00000000"},{"name":"Losar del Barco El","state_name":"Ávila","latitude":"0.00000000","longitude":"0.00000000"},{"name":"Madrigal de las Altas Torres","state_name":"Ávila","latitude":"41.08968000","longitude":"-4.99863000"},{"name":"Maello","state_name":"Ávila","latitude":"40.80929000","longitude":"-4.51186000"},{"name":"Malpartida de Corneja","state_name":"Ávila","latitude":"40.52208000","longitude":"-5.35026000"},{"name":"Mamblas","state_name":"Ávila","latitude":"41.01925000","longitude":"-5.00873000"},{"name":"Mancera de Arriba","state_name":"Ávila","latitude":"40.79139000","longitude":"-5.14772000"},{"name":"Manjabálago","state_name":"Ávila","latitude":"40.66441000","longitude":"-5.07719000"},{"name":"Marlín","state_name":"Ávila","latitude":"0.00000000","longitude":"0.00000000"},{"name":"Martiherrero","state_name":"Ávila","latitude":"40.67392000","longitude":"-4.78156000"},{"name":"Martínez","state_name":"Ávila","latitude":"40.63046000","longitude":"-5.34801000"},{"name":"Mediana de Voltoya","state_name":"Ávila","latitude":"40.70104000","longitude":"-4.56341000"},{"name":"Medinilla","state_name":"Ávila","latitude":"40.43967000","longitude":"-5.61772000"},{"name":"Mengamuñoz","state_name":"Ávila","latitude":"40.50006000","longitude":"-4.99983000"},{"name":"Mesegar de Corneja","state_name":"Ávila","latitude":"40.50209000","longitude":"-5.30131000"},{"name":"Mijares","state_name":"Ávila","latitude":"40.29655000","longitude":"-4.83651000"},{"name":"Mingorría","state_name":"Ávila","latitude":"40.75192000","longitude":"-4.66583000"},{"name":"Mirón El","state_name":"Ávila","latitude":"0.00000000","longitude":"0.00000000"},{"name":"Mironcillo","state_name":"Ávila","latitude":"40.55435000","longitude":"-4.82449000"},{"name":"Mirueña de los Infanzones","state_name":"Ávila","latitude":"0.00000000","longitude":"0.00000000"},{"name":"Mombeltrán","state_name":"Ávila","latitude":"40.25987000","longitude":"-5.01749000"},{"name":"Monsalupe","state_name":"Ávila","latitude":"40.76953000","longitude":"-4.78131000"},{"name":"Moraleja de Matacabras","state_name":"Ávila","latitude":"41.10732000","longitude":"-4.95717000"},{"name":"Muñana","state_name":"Ávila","latitude":"40.59042000","longitude":"-5.01447000"},{"name":"Muñico","state_name":"Ávila","latitude":"40.70678000","longitude":"-5.02717000"},{"name":"Muñogalindo","state_name":"Ávila","latitude":"40.60324000","longitude":"-4.89895000"},{"name":"Muñogrande","state_name":"Ávila","latitude":"40.82181000","longitude":"-4.92223000"},{"name":"Muñomer del Peco","state_name":"Ávila","latitude":"40.85878000","longitude":"-4.87992000"},{"name":"Muñopepe","state_name":"Ávila","latitude":"40.63408000","longitude":"-4.81876000"},{"name":"Muñosancho","state_name":"Ávila","latitude":"40.92097000","longitude":"-5.03559000"},{"name":"Muñotello","state_name":"Ávila","latitude":"40.54236000","longitude":"-5.04187000"},{"name":"Narrillos del Álamo","state_name":"Ávila","latitude":"40.56673000","longitude":"-5.46584000"},{"name":"Narrillos del Rebollar","state_name":"Ávila","latitude":"40.66488000","longitude":"-4.96577000"},{"name":"Narros de Saldueña","state_name":"Ávila","latitude":"40.87268000","longitude":"-4.86909000"},{"name":"Narros del Castillo","state_name":"Ávila","latitude":"40.85869000","longitude":"-5.06010000"},{"name":"Narros del Puerto","state_name":"Ávila","latitude":"40.54131000","longitude":"-4.99291000"},{"name":"Nava de Arévalo","state_name":"Ávila","latitude":"40.97803000","longitude":"-4.77573000"},{"name":"Nava del Barco","state_name":"Ávila","latitude":"40.29321000","longitude":"-5.54022000"},{"name":"Navacepedilla de Corneja","state_name":"Ávila","latitude":"40.48602000","longitude":"-5.18380000"},{"name":"Navadijos","state_name":"Ávila","latitude":"40.42524000","longitude":"-5.08285000"},{"name":"Navaescurial","state_name":"Ávila","latitude":"40.47163000","longitude":"-5.27756000"},{"name":"Navahondilla","state_name":"Ávila","latitude":"40.32510000","longitude":"-4.49661000"},{"name":"Navalacruz","state_name":"Ávila","latitude":"40.43993000","longitude":"-4.93122000"},{"name":"Navalmoral","state_name":"Ávila","latitude":"40.46028000","longitude":"-4.76859000"},{"name":"Navalonguilla","state_name":"Ávila","latitude":"0.00000000","longitude":"0.00000000"},{"name":"Navalosa","state_name":"Ávila","latitude":"40.40212000","longitude":"-4.92999000"},{"name":"Navalperal de Pinares","state_name":"Ávila","latitude":"40.59398000","longitude":"-4.41149000"},{"name":"Navalperal de Tormes","state_name":"Ávila","latitude":"40.35280000","longitude":"-5.30084000"},{"name":"Navaluenga","state_name":"Ávila","latitude":"40.41123000","longitude":"-4.70897000"},{"name":"Navaquesera","state_name":"Ávila","latitude":"40.42558000","longitude":"-4.91108000"},{"name":"Navarredonda de Gredos","state_name":"Ávila","latitude":"40.36136000","longitude":"-5.13268000"},{"name":"Navarredondilla","state_name":"Ávila","latitude":"40.45416000","longitude":"-4.82199000"},{"name":"Navarrevisca","state_name":"Ávila","latitude":"40.36417000","longitude":"-4.89352000"},{"name":"Navas del Marqués Las","state_name":"Ávila","latitude":"0.00000000","longitude":"0.00000000"},{"name":"Navatalgordo","state_name":"Ávila","latitude":"40.41520000","longitude":"-4.87155000"},{"name":"Navatejares","state_name":"Ávila","latitude":"40.33602000","longitude":"-5.53220000"},{"name":"Neila de San Miguel","state_name":"Ávila","latitude":"40.42372000","longitude":"-5.65090000"},{"name":"Niharra","state_name":"Ávila","latitude":"40.58945000","longitude":"-4.83895000"},{"name":"Ojos-Albos","state_name":"Ávila","latitude":"40.70596000","longitude":"-4.51633000"},{"name":"Orbita","state_name":"Ávila","latitude":"40.99846000","longitude":"-4.64833000"},{"name":"Oso El","state_name":"Ávila","latitude":"0.00000000","longitude":"0.00000000"},{"name":"Padiernos","state_name":"Ávila","latitude":"40.62168000","longitude":"-4.84523000"},{"name":"Pajares de Adaja","state_name":"Ávila","latitude":"40.92398000","longitude":"-4.64048000"},{"name":"Palacios de Goda","state_name":"Ávila","latitude":"41.11798000","longitude":"-4.78496000"},{"name":"Papatrigo","state_name":"Ávila","latitude":"40.86790000","longitude":"-4.83399000"},{"name":"Parral El","state_name":"Ávila","latitude":"0.00000000","longitude":"0.00000000"},{"name":"Pascualcobo","state_name":"Ávila","latitude":"0.00000000","longitude":"0.00000000"},{"name":"Pedro Bernardo","state_name":"Ávila","latitude":"40.24214000","longitude":"-4.90963000"},{"name":"Pedro-Rodríguez","state_name":"Ávila","latitude":"0.00000000","longitude":"0.00000000"},{"name":"Peguerinos","state_name":"Ávila","latitude":"40.62620000","longitude":"-4.23154000"},{"name":"Peñalba de Ávila","state_name":"Ávila","latitude":"40.77266000","longitude":"-4.74595000"},{"name":"Piedrahíta","state_name":"Ávila","latitude":"0.00000000","longitude":"0.00000000"},{"name":"Piedralaves","state_name":"Ávila","latitude":"40.31721000","longitude":"-4.70025000"},{"name":"Poveda","state_name":"Ávila","latitude":"40.56799000","longitude":"-5.07909000"},{"name":"Poyales del Hoyo","state_name":"Ávila","latitude":"40.17254000","longitude":"-5.16597000"},{"name":"Pozanco","state_name":"Ávila","latitude":"40.80095000","longitude":"-4.66772000"},{"name":"Pradosegar","state_name":"Ávila","latitude":"40.55020000","longitude":"-5.07015000"},{"name":"Puerto Castilla","state_name":"Ávila","latitude":"40.28800000","longitude":"-5.62366000"},{"name":"Rasueros","state_name":"Ávila","latitude":"41.02344000","longitude":"-5.07377000"},{"name":"Riocabado","state_name":"Ávila","latitude":"0.00000000","longitude":"0.00000000"},{"name":"Riofrío","state_name":"Ávila","latitude":"0.00000000","longitude":"0.00000000"},{"name":"Rivilla de Barajas","state_name":"Ávila","latitude":"40.90210000","longitude":"-4.98836000"},{"name":"Salobral","state_name":"Ávila","latitude":"40.61179000","longitude":"-4.81013000"},{"name":"Salvadiós","state_name":"Ávila","latitude":"40.87836000","longitude":"-5.09629000"},{"name":"San Bartolomé de Béjar","state_name":"Ávila","latitude":"40.40783000","longitude":"-5.66261000"},{"name":"San Bartolomé de Corneja","state_name":"Ávila","latitude":"40.49257000","longitude":"-5.38519000"},{"name":"San Bartolomé de Pinares","state_name":"Ávila","latitude":"0.00000000","longitude":"0.00000000"},{"name":"San Esteban de los Patos","state_name":"Ávila","latitude":"40.74705000","longitude":"-4.62413000"},{"name":"San Esteban de Zapardiel","state_name":"Ávila","latitude":"0.00000000","longitude":"0.00000000"},{"name":"San Esteban del Valle","state_name":"Ávila","latitude":"40.27510000","longitude":"-4.98215000"},{"name":"San García de Ingelmos","state_name":"Ávila","latitude":"40.76912000","longitude":"-5.11523000"},{"name":"San Juan de Gredos","state_name":"Ávila","latitude":"0.00000000","longitude":"0.00000000"},{"name":"San Juan de la Encinilla","state_name":"Ávila","latitude":"40.83020000","longitude":"-4.83957000"},{"name":"San Juan de la Nava","state_name":"Ávila","latitude":"40.47880000","longitude":"-4.68238000"},{"name":"San Juan del Molinillo","state_name":"Ávila","latitude":"40.45909000","longitude":"-4.81711000"},{"name":"San Juan del Olmo","state_name":"Ávila","latitude":"0.00000000","longitude":"0.00000000"},{"name":"San Lorenzo de Tormes","state_name":"Ávila","latitude":"40.36984000","longitude":"-5.48848000"},{"name":"San Martín de la Vega del Alberche","state_name":"Ávila","latitude":"40.43053000","longitude":"-5.15500000"},{"name":"San Martín del Pimpollar","state_name":"Ávila","latitude":"40.36830000","longitude":"-5.05443000"},{"name":"San Miguel de Corneja","state_name":"Ávila","latitude":"40.48722000","longitude":"-5.28654000"},{"name":"San Miguel de Serrezuela","state_name":"Ávila","latitude":"40.67064000","longitude":"-5.28857000"},{"name":"San Pascual","state_name":"Ávila","latitude":"40.88141000","longitude":"-4.75612000"},{"name":"San Pedro del Arroyo","state_name":"Ávila","latitude":"40.80213000","longitude":"-4.87075000"},{"name":"San Vicente de Arévalo","state_name":"Ávila","latitude":"40.96773000","longitude":"-4.80194000"},{"name":"Sanchidrián","state_name":"Ávila","latitude":"40.89347000","longitude":"-4.58132000"},{"name":"Sanchorreja","state_name":"Ávila","latitude":"40.66475000","longitude":"-4.91494000"},{"name":"Santa Cruz de Pinares","state_name":"Ávila","latitude":"40.54265000","longitude":"-4.58036000"},{"name":"Santa Cruz del Valle","state_name":"Ávila","latitude":"40.25160000","longitude":"-5.00133000"},{"name":"Santa María de los Caballeros","state_name":"Ávila","latitude":"40.38925000","longitude":"-5.45112000"},{"name":"Santa María del Arroyo","state_name":"Ávila","latitude":"0.00000000","longitude":"0.00000000"},{"name":"Santa María del Berrocal","state_name":"Ávila","latitude":"40.50845000","longitude":"-5.40483000"},{"name":"Santa María del Cubillo","state_name":"Ávila","latitude":"0.00000000","longitude":"0.00000000"},{"name":"Santa María del Tiétar","state_name":"Ávila","latitude":"0.00000000","longitude":"0.00000000"},{"name":"Santiago del Collado","state_name":"Ávila","latitude":"40.43326000","longitude":"-5.35631000"},{"name":"Santiago del Tormes","state_name":"Ávila","latitude":"0.00000000","longitude":"0.00000000"},{"name":"Santo Domingo de las Posadas","state_name":"Ávila","latitude":"40.81200000","longitude":"-4.63383000"},{"name":"Santo Tomé de Zabarcos","state_name":"Ávila","latitude":"40.78726000","longitude":"-4.91048000"},{"name":"Serrada La","state_name":"Ávila","latitude":"0.00000000","longitude":"0.00000000"},{"name":"Serranillos","state_name":"Ávila","latitude":"40.33625000","longitude":"-4.91165000"},{"name":"Sigeres","state_name":"Ávila","latitude":"40.79939000","longitude":"-4.93361000"},{"name":"Sinlabajos","state_name":"Ávila","latitude":"41.07650000","longitude":"-4.83242000"},{"name":"Solana de Ávila","state_name":"Ávila","latitude":"0.00000000","longitude":"0.00000000"},{"name":"Solana de Rioalmar","state_name":"Ávila","latitude":"0.00000000","longitude":"0.00000000"},{"name":"Solosancho","state_name":"Ávila","latitude":"40.55294000","longitude":"-4.90479000"},{"name":"Sotalbo","state_name":"Ávila","latitude":"40.54170000","longitude":"-4.84548000"},{"name":"Sotillo de la Adrada","state_name":"Ávila","latitude":"40.29120000","longitude":"-4.58385000"},{"name":"Tiemblo El","state_name":"Ávila","latitude":"0.00000000","longitude":"0.00000000"},{"name":"Tiñosillos","state_name":"Ávila","latitude":"40.93400000","longitude":"-4.72767000"},{"name":"Tolbaños","state_name":"Ávila","latitude":"40.75168000","longitude":"-4.58191000"},{"name":"Tormellas","state_name":"Ávila","latitude":"40.30404000","longitude":"-5.51185000"},{"name":"Tornadizos de Ávila","state_name":"Ávila","latitude":"40.62757000","longitude":"-4.61426000"},{"name":"Torre La","state_name":"Ávila","latitude":"0.00000000","longitude":"0.00000000"},{"name":"Tórtoles","state_name":"Ávila","latitude":"40.56120000","longitude":"-5.26120000"},{"name":"Umbrías","state_name":"Ávila","latitude":"40.31530000","longitude":"-5.58037000"},{"name":"Vadillo de la Sierra","state_name":"Ávila","latitude":"40.60634000","longitude":"-5.12506000"},{"name":"Valdecasa","state_name":"Ávila","latitude":"40.65931000","longitude":"-5.01183000"},{"name":"Vega de Santa María","state_name":"Ávila","latitude":"40.83618000","longitude":"-4.64287000"},{"name":"Velayos","state_name":"Ávila","latitude":"40.84157000","longitude":"-4.62324000"},{"name":"Villaflor","state_name":"Ávila","latitude":"40.75865000","longitude":"-4.87379000"},{"name":"Villafranca de la Sierra","state_name":"Ávila","latitude":"40.49806000","longitude":"-5.23005000"},{"name":"Villanueva de Ávila","state_name":"Ávila","latitude":"0.00000000","longitude":"0.00000000"},{"name":"Villanueva de Gómez","state_name":"Ávila","latitude":"40.88269000","longitude":"-4.71650000"},{"name":"Villanueva del Aceral","state_name":"Ávila","latitude":"41.04095000","longitude":"-4.85419000"},{"name":"Villanueva del Campillo","state_name":"Ávila","latitude":"40.57646000","longitude":"-5.18002000"},{"name":"Villar de Corneja","state_name":"Ávila","latitude":"40.47462000","longitude":"-5.43307000"},{"name":"Villarejo del Valle","state_name":"Ávila","latitude":"40.28638000","longitude":"-4.99674000"},{"name":"Villatoro","state_name":"Ávila","latitude":"40.55609000","longitude":"-5.11262000"},{"name":"Viñegra de Moraña","state_name":"Ávila","latitude":"40.85074000","longitude":"-4.92115000"},{"name":"Vita","state_name":"Ávila","latitude":"40.81178000","longitude":"-5.00583000"},{"name":"Zapardiel de la Cañada","state_name":"Ávila","latitude":"40.60648000","longitude":"-5.33791000"},{"name":"Zapardiel de la Ribera","state_name":"Ávila","latitude":"40.35554000","longitude":"-5.32826000"},{"name":"Acedera","state_name":"Badajoz","latitude":"39.07678000","longitude":"-5.57384000"},{"name":"Aceuchal","state_name":"Badajoz","latitude":"38.64627000","longitude":"-6.48636000"},{"name":"Ahillones","state_name":"Badajoz","latitude":"38.26667000","longitude":"-5.85000000"},{"name":"Alange","state_name":"Badajoz","latitude":"38.78495000","longitude":"-6.24574000"},{"name":"Albuera La","state_name":"Badajoz","latitude":"0.00000000","longitude":"0.00000000"},{"name":"Alburquerque","state_name":"Badajoz","latitude":"39.22076000","longitude":"-7.00234000"},{"name":"Alconchel","state_name":"Badajoz","latitude":"38.51648000","longitude":"-7.07161000"},{"name":"Alconera","state_name":"Badajoz","latitude":"38.40000000","longitude":"-6.46667000"},{"name":"Aljucén","state_name":"Badajoz","latitude":"39.04425000","longitude":"-6.33109000"},{"name":"Almendral","state_name":"Badajoz","latitude":"38.61418000","longitude":"-6.82097000"},{"name":"Almendralejo","state_name":"Badajoz","latitude":"38.68316000","longitude":"-6.40747000"},{"name":"Arroyo de San Serván","state_name":"Badajoz","latitude":"38.85443000","longitude":"-6.45402000"},{"name":"Atalaya","state_name":"Badajoz","latitude":"38.33333000","longitude":"-6.46667000"},{"name":"Azuaga","state_name":"Badajoz","latitude":"38.26667000","longitude":"-5.68333000"},{"name":"Badajoz","state_name":"Badajoz","latitude":"38.87789000","longitude":"-6.97061000"},{"name":"Barcarrota","state_name":"Badajoz","latitude":"38.51473000","longitude":"-6.84923000"},{"name":"Baterno","state_name":"Badajoz","latitude":"38.95578000","longitude":"-4.91039000"},{"name":"Benquerencia de la Serena","state_name":"Badajoz","latitude":"0.00000000","longitude":"0.00000000"},{"name":"Berlanga","state_name":"Badajoz","latitude":"38.28333000","longitude":"-5.81667000"},{"name":"Bienvenida","state_name":"Badajoz","latitude":"38.30000000","longitude":"-6.20000000"},{"name":"Bodonal de la Sierra","state_name":"Badajoz","latitude":"38.14751000","longitude":"-6.55950000"},{"name":"Burguillos del Cerro","state_name":"Badajoz","latitude":"38.38008000","longitude":"-6.59037000"},{"name":"Cabeza del Buey","state_name":"Badajoz","latitude":"38.72227000","longitude":"-5.21946000"},{"name":"Cabeza la Vaca","state_name":"Badajoz","latitude":"38.08333000","longitude":"-6.41667000"},{"name":"Calamonte","state_name":"Badajoz","latitude":"38.88861000","longitude":"-6.38791000"},{"name":"Calera de León","state_name":"Badajoz","latitude":"38.10000000","longitude":"-6.33333000"},{"name":"Calzadilla de los Barros","state_name":"Badajoz","latitude":"0.00000000","longitude":"0.00000000"},{"name":"Campanario","state_name":"Badajoz","latitude":"38.86440000","longitude":"-5.61744000"},{"name":"Campillo de Llerena","state_name":"Badajoz","latitude":"38.50196000","longitude":"-5.83139000"},{"name":"Capilla","state_name":"Badajoz","latitude":"38.82037000","longitude":"-5.08417000"},{"name":"Carmonita","state_name":"Badajoz","latitude":"39.15455000","longitude":"-6.33864000"},{"name":"Carrascalejo El","state_name":"Badajoz","latitude":"0.00000000","longitude":"0.00000000"},{"name":"Casas de Don Pedro","state_name":"Badajoz","latitude":"39.10822000","longitude":"-5.33077000"},{"name":"Casas de Reina","state_name":"Badajoz","latitude":"38.20000000","longitude":"-5.96667000"},{"name":"Castilblanco","state_name":"Badajoz","latitude":"39.28487000","longitude":"-5.09098000"},{"name":"Castuera","state_name":"Badajoz","latitude":"38.73204000","longitude":"-5.54390000"},{"name":"Cheles","state_name":"Badajoz","latitude":"38.51225000","longitude":"-7.28177000"},{"name":"Codosera La","state_name":"Badajoz","latitude":"0.00000000","longitude":"0.00000000"},{"name":"Cordobilla de Lácara","state_name":"Badajoz","latitude":"39.14763000","longitude":"-6.43619000"},{"name":"Coronada La","state_name":"Badajoz","latitude":"0.00000000","longitude":"0.00000000"},{"name":"Corte de Peleas","state_name":"Badajoz","latitude":"38.72631000","longitude":"-6.67035000"},{"name":"Cristina","state_name":"Badajoz","latitude":"38.83745000","longitude":"-6.09867000"},{"name":"Don Álvaro","state_name":"Badajoz","latitude":"38.84837000","longitude":"-6.27475000"},{"name":"Don Benito","state_name":"Badajoz","latitude":"38.95627000","longitude":"-5.86162000"},{"name":"Entrín Bajo","state_name":"Badajoz","latitude":"38.71855000","longitude":"-6.71349000"},{"name":"Esparragalejo","state_name":"Badajoz","latitude":"38.94330000","longitude":"-6.43549000"},{"name":"Esparragosa de la Serena","state_name":"Badajoz","latitude":"38.65100000","longitude":"-5.60657000"},{"name":"Esparragosa de Lares","state_name":"Badajoz","latitude":"38.97517000","longitude":"-5.26968000"},{"name":"Feria","state_name":"Badajoz","latitude":"38.51151000","longitude":"-6.56416000"},{"name":"Fregenal de la Sierra","state_name":"Badajoz","latitude":"38.16922000","longitude":"-6.65370000"},{"name":"Fuenlabrada de los Montes","state_name":"Badajoz","latitude":"39.13288000","longitude":"-4.93513000"},{"name":"Fuente de Cantos","state_name":"Badajoz","latitude":"38.25000000","longitude":"-6.30000000"},{"name":"Fuente del Arco","state_name":"Badajoz","latitude":"0.00000000","longitude":"0.00000000"},{"name":"Fuente del Maestre","state_name":"Badajoz","latitude":"38.52656000","longitude":"-6.44782000"},{"name":"Fuentes de León","state_name":"Badajoz","latitude":"38.06866000","longitude":"-6.53884000"},{"name":"Garbayuela","state_name":"Badajoz","latitude":"39.04956000","longitude":"-4.99856000"},{"name":"Garlitos","state_name":"Badajoz","latitude":"38.88022000","longitude":"-5.04759000"},{"name":"Garrovilla La","state_name":"Badajoz","latitude":"0.00000000","longitude":"0.00000000"},{"name":"Granja de Torrehermosa","state_name":"Badajoz","latitude":"38.31667000","longitude":"-5.58333000"},{"name":"Guareña","state_name":"Badajoz","latitude":"38.85952000","longitude":"-6.09987000"},{"name":"Haba La","state_name":"Badajoz","latitude":"0.00000000","longitude":"0.00000000"},{"name":"Helechosa de los Montes","state_name":"Badajoz","latitude":"0.00000000","longitude":"0.00000000"},{"name":"Herrera del Duque","state_name":"Badajoz","latitude":"39.16840000","longitude":"-5.05049000"},{"name":"Higuera de la Serena","state_name":"Badajoz","latitude":"38.64616000","longitude":"-5.74129000"},{"name":"Higuera de Llerena","state_name":"Badajoz","latitude":"0.00000000","longitude":"0.00000000"},{"name":"Higuera de Vargas","state_name":"Badajoz","latitude":"38.44700000","longitude":"-6.97517000"},{"name":"Higuera la Real","state_name":"Badajoz","latitude":"38.14088000","longitude":"-6.68922000"},{"name":"Hinojosa del Valle","state_name":"Badajoz","latitude":"38.48333000","longitude":"-6.18333000"},{"name":"Hornachos","state_name":"Badajoz","latitude":"38.55428000","longitude":"-6.06829000"},{"name":"Jerez de los Caballeros","state_name":"Badajoz","latitude":"38.32063000","longitude":"-6.77260000"},{"name":"Lapa La","state_name":"Badajoz","latitude":"0.00000000","longitude":"0.00000000"},{"name":"Llera","state_name":"Badajoz","latitude":"38.45000000","longitude":"-6.05000000"},{"name":"Llerena","state_name":"Badajoz","latitude":"38.23333000","longitude":"-6.01667000"},{"name":"Lobón","state_name":"Badajoz","latitude":"38.84876000","longitude":"-6.62365000"},{"name":"Magacela","state_name":"Badajoz","latitude":"38.89648000","longitude":"-5.73437000"},{"name":"Maguilla","state_name":"Badajoz","latitude":"38.36667000","longitude":"-5.83333000"},{"name":"Malcocinado","state_name":"Badajoz","latitude":"38.11667000","longitude":"-5.68333000"},{"name":"Malpartida de la Serena","state_name":"Badajoz","latitude":"38.67470000","longitude":"-5.64054000"},{"name":"Manchita","state_name":"Badajoz","latitude":"38.81404000","longitude":"-6.02041000"},{"name":"Medellín","state_name":"Badajoz","latitude":"38.96265000","longitude":"-5.95785000"},{"name":"Medina de las Torres","state_name":"Badajoz","latitude":"38.33333000","longitude":"-6.40000000"},{"name":"Mengabril","state_name":"Badajoz","latitude":"38.93554000","longitude":"-5.93335000"},{"name":"Mérida","state_name":"Badajoz","latitude":"38.91611000","longitude":"-6.34366000"},{"name":"Mirandilla","state_name":"Badajoz","latitude":"39.00200000","longitude":"-6.28893000"},{"name":"Monesterio","state_name":"Badajoz","latitude":"38.08333000","longitude":"-6.26667000"},{"name":"Montemolín","state_name":"Badajoz","latitude":"38.15000000","longitude":"-6.20000000"},{"name":"Monterrubio de la Serena","state_name":"Badajoz","latitude":"38.58876000","longitude":"-5.44569000"},{"name":"Montijo","state_name":"Badajoz","latitude":"38.90839000","longitude":"-6.61785000"},{"name":"Morera La","state_name":"Badajoz","latitude":"0.00000000","longitude":"0.00000000"},{"name":"Nava de Santiago La","state_name":"Badajoz","latitude":"0.00000000","longitude":"0.00000000"},{"name":"Navalvillar de Pela","state_name":"Badajoz","latitude":"39.09436000","longitude":"-5.46810000"},{"name":"Nogales","state_name":"Badajoz","latitude":"38.58629000","longitude":"-6.74901000"},{"name":"Oliva de la Frontera","state_name":"Badajoz","latitude":"38.27595000","longitude":"-6.91873000"},{"name":"Oliva de Mérida","state_name":"Badajoz","latitude":"38.79051000","longitude":"-6.12402000"},{"name":"Olivenza","state_name":"Badajoz","latitude":"38.68269000","longitude":"-7.10046000"},{"name":"Orellana de la Sierra","state_name":"Badajoz","latitude":"0.00000000","longitude":"0.00000000"},{"name":"Orellana la Vieja","state_name":"Badajoz","latitude":"39.00617000","longitude":"-5.53441000"},{"name":"Palomas","state_name":"Badajoz","latitude":"38.69277000","longitude":"-6.13490000"},{"name":"Parra La","state_name":"Badajoz","latitude":"0.00000000","longitude":"0.00000000"},{"name":"Peñalsordo","state_name":"Badajoz","latitude":"38.82019000","longitude":"-5.11405000"},{"name":"Peraleda del Zaucejo","state_name":"Badajoz","latitude":"0.00000000","longitude":"0.00000000"},{"name":"Puebla de Alcocer","state_name":"Badajoz","latitude":"38.98648000","longitude":"-5.25633000"},{"name":"Puebla de la Calzada","state_name":"Badajoz","latitude":"38.89441000","longitude":"-6.62592000"},{"name":"Puebla de la Reina","state_name":"Badajoz","latitude":"38.66455000","longitude":"-6.10216000"},{"name":"Puebla de Obando","state_name":"Badajoz","latitude":"39.17630000","longitude":"-6.62764000"},{"name":"Puebla de Sancho Pérez","state_name":"Badajoz","latitude":"38.40000000","longitude":"-6.40000000"},{"name":"Puebla del Maestre","state_name":"Badajoz","latitude":"38.08333000","longitude":"-6.08333000"},{"name":"Puebla del Prior","state_name":"Badajoz","latitude":"38.57032000","longitude":"-6.19584000"},{"name":"Pueblonuevo del Guadiana","state_name":"Badajoz","latitude":"0.00000000","longitude":"0.00000000"},{"name":"Quintana de la Serena","state_name":"Badajoz","latitude":"38.74595000","longitude":"-5.67233000"},{"name":"Reina","state_name":"Badajoz","latitude":"38.18333000","longitude":"-5.95000000"},{"name":"Rena","state_name":"Badajoz","latitude":"39.05252000","longitude":"-5.80868000"},{"name":"Retamal de Llerena","state_name":"Badajoz","latitude":"0.00000000","longitude":"0.00000000"},{"name":"Ribera del Fresno","state_name":"Badajoz","latitude":"38.55177000","longitude":"-6.23768000"},{"name":"Risco","state_name":"Badajoz","latitude":"0.00000000","longitude":"0.00000000"},{"name":"Roca de la Sierra La","state_name":"Badajoz","latitude":"0.00000000","longitude":"0.00000000"},{"name":"Salvaleón","state_name":"Badajoz","latitude":"38.51020000","longitude":"-6.78627000"},{"name":"Salvatierra de los Barros","state_name":"Badajoz","latitude":"38.49091000","longitude":"-6.68423000"},{"name":"San Pedro de Mérida","state_name":"Badajoz","latitude":"38.95007000","longitude":"-6.18645000"},{"name":"San Vicente de Alcántara","state_name":"Badajoz","latitude":"39.36132000","longitude":"-7.13766000"},{"name":"Santa Amalia","state_name":"Badajoz","latitude":"39.01118000","longitude":"-6.01158000"},{"name":"Santa Marta","state_name":"Badajoz","latitude":"38.61421000","longitude":"-6.62799000"},{"name":"Santos de Maimona Los","state_name":"Badajoz","latitude":"0.00000000","longitude":"0.00000000"},{"name":"Segura de León","state_name":"Badajoz","latitude":"38.11667000","longitude":"-6.51667000"},{"name":"Siruela","state_name":"Badajoz","latitude":"38.97718000","longitude":"-5.04969000"},{"name":"Solana de los Barros","state_name":"Badajoz","latitude":"38.72527000","longitude":"-6.53899000"},{"name":"Talarrubias","state_name":"Badajoz","latitude":"39.03697000","longitude":"-5.23423000"},{"name":"Talavera La Real","state_name":"Badajoz","latitude":"38.87794000","longitude":"-6.76856000"},{"name":"Táliga","state_name":"Badajoz","latitude":"38.52861000","longitude":"-7.01713000"},{"name":"Tamurejo","state_name":"Badajoz","latitude":"38.98333000","longitude":"-4.93333000"},{"name":"Torre de Miguel Sesmero","state_name":"Badajoz","latitude":"38.61913000","longitude":"-6.79580000"},{"name":"Torremayor","state_name":"Badajoz","latitude":"38.90140000","longitude":"-6.53858000"},{"name":"Torremejía","state_name":"Badajoz","latitude":"0.00000000","longitude":"0.00000000"},{"name":"Trasierra","state_name":"Badajoz","latitude":"38.18333000","longitude":"-6.00000000"},{"name":"Trujillanos","state_name":"Badajoz","latitude":"38.95233000","longitude":"-6.25759000"},{"name":"Usagre","state_name":"Badajoz","latitude":"38.35000000","longitude":"-6.16667000"},{"name":"Valdecaballeros","state_name":"Badajoz","latitude":"39.24289000","longitude":"-5.19000000"},{"name":"Valdelacalzada","state_name":"Badajoz","latitude":"38.88943000","longitude":"-6.70029000"},{"name":"Valdetorres","state_name":"Badajoz","latitude":"38.91542000","longitude":"-6.06765000"},{"name":"Valencia de las Torres","state_name":"Badajoz","latitude":"38.40518000","longitude":"-6.00403000"},{"name":"Valencia del Mombuey","state_name":"Badajoz","latitude":"38.24243000","longitude":"-7.11965000"},{"name":"Valencia del Ventoso","state_name":"Badajoz","latitude":"38.26667000","longitude":"-6.46667000"},{"name":"Valle de la Serena","state_name":"Badajoz","latitude":"38.71010000","longitude":"-5.79847000"},{"name":"Valle de Matamoros","state_name":"Badajoz","latitude":"38.37889000","longitude":"-6.80371000"},{"name":"Valle de Santa Ana","state_name":"Badajoz","latitude":"38.36637000","longitude":"-6.78860000"},{"name":"Valverde de Burguillos","state_name":"Badajoz","latitude":"38.32710000","longitude":"-6.53648000"},{"name":"Valverde de Leganés","state_name":"Badajoz","latitude":"38.67059000","longitude":"-6.98036000"},{"name":"Valverde de Llerena","state_name":"Badajoz","latitude":"38.21667000","longitude":"-5.81667000"},{"name":"Valverde de Mérida","state_name":"Badajoz","latitude":"38.91122000","longitude":"-6.21999000"},{"name":"Villafranca de los Barros","state_name":"Badajoz","latitude":"38.56144000","longitude":"-6.33810000"},{"name":"Villagarcía de la Torre","state_name":"Badajoz","latitude":"38.30000000","longitude":"-6.08333000"},{"name":"Villagonzalo","state_name":"Badajoz","latitude":"38.86329000","longitude":"-6.19665000"},{"name":"Villalba de los Barros","state_name":"Badajoz","latitude":"38.61294000","longitude":"-6.50914000"},{"name":"Villanueva de la Serena","state_name":"Badajoz","latitude":"38.97655000","longitude":"-5.79740000"},{"name":"Villanueva del Fresno","state_name":"Badajoz","latitude":"38.37600000","longitude":"-7.16753000"},{"name":"Villar de Rena","state_name":"Badajoz","latitude":"39.07651000","longitude":"-5.81074000"},{"name":"Villar del Rey","state_name":"Badajoz","latitude":"39.13310000","longitude":"-6.84762000"},{"name":"Villarta de los Montes","state_name":"Badajoz","latitude":"39.21386000","longitude":"-4.79227000"},{"name":"Zafra","state_name":"Badajoz","latitude":"38.42539000","longitude":"-6.41734000"},{"name":"Zahinos","state_name":"Badajoz","latitude":"38.33135000","longitude":"-6.95533000"},{"name":"Zalamea de la Serena","state_name":"Badajoz","latitude":"38.65131000","longitude":"-5.66063000"},{"name":"Zarza La","state_name":"Badajoz","latitude":"0.00000000","longitude":"0.00000000"},{"name":"Zarza-Capilla","state_name":"Badajoz","latitude":"0.00000000","longitude":"0.00000000"},{"name":"Abrera","state_name":"Barcelona","latitude":"41.51682000","longitude":"1.90100000"},{"name":"Aguilar de Segarra","state_name":"Barcelona","latitude":"41.74822000","longitude":"1.62919000"},{"name":"Aiguafreda","state_name":"Barcelona","latitude":"41.76807000","longitude":"2.25051000"},{"name":"Alella","state_name":"Barcelona","latitude":"41.49379000","longitude":"2.29451000"},{"name":"Alpens","state_name":"Barcelona","latitude":"42.11930000","longitude":"2.10135000"},{"name":"Ametlla del Vallès L","state_name":"Barcelona","latitude":"0.00000000","longitude":"0.00000000"},{"name":"Arenys de Mar","state_name":"Barcelona","latitude":"41.58190000","longitude":"2.54936000"},{"name":"Arenys de Munt","state_name":"Barcelona","latitude":"41.61424000","longitude":"2.53972000"},{"name":"Argençola","state_name":"Barcelona","latitude":"0.00000000","longitude":"0.00000000"},{"name":"Argentona","state_name":"Barcelona","latitude":"41.55336000","longitude":"2.40114000"},{"name":"Artés","state_name":"Barcelona","latitude":"41.79800000","longitude":"1.95428000"},{"name":"Avià","state_name":"Barcelona","latitude":"0.00000000","longitude":"0.00000000"},{"name":"Avinyó","state_name":"Barcelona","latitude":"41.86367000","longitude":"1.97095000"},{"name":"Avinyonet del Penedès","state_name":"Barcelona","latitude":"0.00000000","longitude":"0.00000000"},{"name":"Badalona","state_name":"Barcelona","latitude":"41.45004000","longitude":"2.24741000"},{"name":"Badia del Vallès","state_name":"Barcelona","latitude":"0.00000000","longitude":"0.00000000"},{"name":"Bagà","state_name":"Barcelona","latitude":"42.25289000","longitude":"1.86098000"},{"name":"Balenyà","state_name":"Barcelona","latitude":"0.00000000","longitude":"0.00000000"},{"name":"Balsareny","state_name":"Barcelona","latitude":"41.86311000","longitude":"1.87356000"},{"name":"Barberà del Vallès","state_name":"Barcelona","latitude":"41.51590000","longitude":"2.12457000"},{"name":"Barcelona","state_name":"Barcelona","latitude":"41.38879000","longitude":"2.15899000"},{"name":"Begues","state_name":"Barcelona","latitude":"41.33333000","longitude":"1.93333000"},{"name":"Bellprat","state_name":"Barcelona","latitude":"41.51695000","longitude":"1.43333000"},{"name":"Berga","state_name":"Barcelona","latitude":"42.10429000","longitude":"1.84628000"},{"name":"Bigues i Riells","state_name":"Barcelona","latitude":"41.68333000","longitude":"2.23333000"},{"name":"Borredà","state_name":"Barcelona","latitude":"0.00000000","longitude":"0.00000000"},{"name":"Bruc El","state_name":"Barcelona","latitude":"0.00000000","longitude":"0.00000000"},{"name":"Brull El","state_name":"Barcelona","latitude":"0.00000000","longitude":"0.00000000"},{"name":"Cabanyes Les","state_name":"Barcelona","latitude":"0.00000000","longitude":"0.00000000"},{"name":"Cabrera dAnoia","state_name":"Barcelona","latitude":"0.00000000","longitude":"0.00000000"},{"name":"Cabrera de Mar","state_name":"Barcelona","latitude":"41.51667000","longitude":"2.40000000"},{"name":"Cabrils","state_name":"Barcelona","latitude":"41.52760000","longitude":"2.36996000"},{"name":"Calaf","state_name":"Barcelona","latitude":"41.73289000","longitude":"1.51375000"},{"name":"Calders","state_name":"Barcelona","latitude":"0.00000000","longitude":"0.00000000"},{"name":"Caldes de Montbui","state_name":"Barcelona","latitude":"41.63333000","longitude":"2.16667000"},{"name":"Caldes dEstrac","state_name":"Barcelona","latitude":"0.00000000","longitude":"0.00000000"},{"name":"Calella","state_name":"Barcelona","latitude":"41.61381000","longitude":"2.65423000"},{"name":"Calldetenes","state_name":"Barcelona","latitude":"0.00000000","longitude":"0.00000000"},{"name":"Callús","state_name":"Barcelona","latitude":"0.00000000","longitude":"0.00000000"},{"name":"Calonge de Segarra","state_name":"Barcelona","latitude":"0.00000000","longitude":"0.00000000"},{"name":"Campins","state_name":"Barcelona","latitude":"41.71667000","longitude":"2.46667000"},{"name":"Canet de Mar","state_name":"Barcelona","latitude":"41.59054000","longitude":"2.58116000"},{"name":"Canovelles","state_name":"Barcelona","latitude":"41.61667000","longitude":"2.28333000"},{"name":"Cànoves i Samalús","state_name":"Barcelona","latitude":"41.68333000","longitude":"2.35000000"},{"name":"Canyelles","state_name":"Barcelona","latitude":"41.44509000","longitude":"2.16346000"},{"name":"Capellades","state_name":"Barcelona","latitude":"41.53005000","longitude":"1.68651000"},{"name":"Capolat","state_name":"Barcelona","latitude":"0.00000000","longitude":"0.00000000"},{"name":"Cardedeu","state_name":"Barcelona","latitude":"41.63976000","longitude":"2.35739000"},{"name":"Cardona","state_name":"Barcelona","latitude":"41.91371000","longitude":"1.67855000"},{"name":"Carme","state_name":"Barcelona","latitude":"0.00000000","longitude":"0.00000000"},{"name":"Casserres","state_name":"Barcelona","latitude":"0.00000000","longitude":"0.00000000"},{"name":"Castell de lAreny","state_name":"Barcelona","latitude":"0.00000000","longitude":"0.00000000"},{"name":"Castellar de nHug","state_name":"Barcelona","latitude":"0.00000000","longitude":"0.00000000"},{"name":"Castellar del Riu","state_name":"Barcelona","latitude":"0.00000000","longitude":"0.00000000"},{"name":"Castellar del Vallès","state_name":"Barcelona","latitude":"41.61667000","longitude":"2.08333000"},{"name":"Castellbell i el Vilar","state_name":"Barcelona","latitude":"0.00000000","longitude":"0.00000000"},{"name":"Castellbisbal","state_name":"Barcelona","latitude":"41.47534000","longitude":"1.98174000"},{"name":"Castellcir","state_name":"Barcelona","latitude":"41.76074000","longitude":"2.16128000"},{"name":"Castelldefels","state_name":"Barcelona","latitude":"41.27794000","longitude":"1.97033000"},{"name":"Castellet i la Gornal","state_name":"Barcelona","latitude":"0.00000000","longitude":"0.00000000"},{"name":"Castellfollit de Riubregós","state_name":"Barcelona","latitude":"41.76667000","longitude":"1.43333000"},{"name":"Castellfollit del Boix","state_name":"Barcelona","latitude":"0.00000000","longitude":"0.00000000"},{"name":"Castellgalí","state_name":"Barcelona","latitude":"0.00000000","longitude":"0.00000000"},{"name":"Castellnou de Bages","state_name":"Barcelona","latitude":"0.00000000","longitude":"0.00000000"},{"name":"Castellolí","state_name":"Barcelona","latitude":"41.59829000","longitude":"1.70057000"},{"name":"Castellterçol","state_name":"Barcelona","latitude":"0.00000000","longitude":"0.00000000"},{"name":"Castellví de la Marca","state_name":"Barcelona","latitude":"0.00000000","longitude":"0.00000000"},{"name":"Castellví de Rosanes","state_name":"Barcelona","latitude":"41.45000000","longitude":"1.90000000"},{"name":"Centelles","state_name":"Barcelona","latitude":"41.79746000","longitude":"2.21902000"},{"name":"Cercs","state_name":"Barcelona","latitude":"0.00000000","longitude":"0.00000000"},{"name":"Cerdanyola del Vallès","state_name":"Barcelona","latitude":"41.49109000","longitude":"2.14079000"},{"name":"Cervelló","state_name":"Barcelona","latitude":"41.39587000","longitude":"1.95917000"},{"name":"Collbató","state_name":"Barcelona","latitude":"41.57009000","longitude":"1.82712000"},{"name":"Collsuspina","state_name":"Barcelona","latitude":"41.82580000","longitude":"2.17546000"},{"name":"Copons","state_name":"Barcelona","latitude":"0.00000000","longitude":"0.00000000"},{"name":"Corbera de Llobregat","state_name":"Barcelona","latitude":"41.41702000","longitude":"1.91970000"},{"name":"Cornellà de Llobregat","state_name":"Barcelona","latitude":"41.35000000","longitude":"2.08333000"},{"name":"Cubelles","state_name":"Barcelona","latitude":"41.20772000","longitude":"1.67267000"},{"name":"Dosrius","state_name":"Barcelona","latitude":"41.58333000","longitude":"2.41667000"},{"name":"Esparreguera","state_name":"Barcelona","latitude":"41.53809000","longitude":"1.87025000"},{"name":"Esplugues de Llobregat","state_name":"Barcelona","latitude":"41.37732000","longitude":"2.08809000"},{"name":"Espunyola L","state_name":"Barcelona","latitude":"0.00000000","longitude":"0.00000000"},{"name":"Estany L","state_name":"Barcelona","latitude":"0.00000000","longitude":"0.00000000"},{"name":"Figaró-Montmany","state_name":"Barcelona","latitude":"0.00000000","longitude":"0.00000000"},{"name":"Fígols","state_name":"Barcelona","latitude":"0.00000000","longitude":"0.00000000"},{"name":"Fogars de la Selva","state_name":"Barcelona","latitude":"0.00000000","longitude":"0.00000000"},{"name":"Fogars de Montclús","state_name":"Barcelona","latitude":"0.00000000","longitude":"0.00000000"},{"name":"Folgueroles","state_name":"Barcelona","latitude":"0.00000000","longitude":"0.00000000"},{"name":"Fonollosa","state_name":"Barcelona","latitude":"41.76303000","longitude":"1.66867000"},{"name":"Font-rubí","state_name":"Barcelona","latitude":"0.00000000","longitude":"0.00000000"},{"name":"Franqueses del Vallès Les","state_name":"Barcelona","latitude":"0.00000000","longitude":"0.00000000"},{"name":"Gaià","state_name":"Barcelona","latitude":"0.00000000","longitude":"0.00000000"},{"name":"Gallifa","state_name":"Barcelona","latitude":"41.69243000","longitude":"2.11346000"},{"name":"Garriga La","state_name":"Barcelona","latitude":"0.00000000","longitude":"0.00000000"},{"name":"Gavà","state_name":"Barcelona","latitude":"41.30605000","longitude":"2.00123000"},{"name":"Gelida","state_name":"Barcelona","latitude":"41.43333000","longitude":"1.86667000"},{"name":"Gironella","state_name":"Barcelona","latitude":"42.03433000","longitude":"1.88019000"},{"name":"Gisclareny","state_name":"Barcelona","latitude":"0.00000000","longitude":"0.00000000"},{"name":"Granada La","state_name":"Barcelona","latitude":"0.00000000","longitude":"0.00000000"},{"name":"Granera","state_name":"Barcelona","latitude":"41.72741000","longitude":"2.05924000"},{"name":"Granollers","state_name":"Barcelona","latitude":"41.60797000","longitude":"2.28773000"},{"name":"Gualba","state_name":"Barcelona","latitude":"0.00000000","longitude":"0.00000000"},{"name":"Guardiola de Berguedà","state_name":"Barcelona","latitude":"0.00000000","longitude":"0.00000000"},{"name":"Gurb","state_name":"Barcelona","latitude":"41.95419000","longitude":"2.23537000"},{"name":"Hospitalet de Llobregat L","state_name":"Barcelona","latitude":"0.00000000","longitude":"0.00000000"},{"name":"Hostalets de Pierola Els","state_name":"Barcelona","latitude":"0.00000000","longitude":"0.00000000"},{"name":"Igualada","state_name":"Barcelona","latitude":"41.58098000","longitude":"1.61720000"},{"name":"Jorba","state_name":"Barcelona","latitude":"41.60193000","longitude":"1.54750000"},{"name":"Llacuna La","state_name":"Barcelona","latitude":"0.00000000","longitude":"0.00000000"},{"name":"Llagosta La","state_name":"Barcelona","latitude":"0.00000000","longitude":"0.00000000"},{"name":"Lliçà dAmunt","state_name":"Barcelona","latitude":"0.00000000","longitude":"0.00000000"},{"name":"Lliçà de Vall","state_name":"Barcelona","latitude":"0.00000000","longitude":"0.00000000"},{"name":"Llinars del Vallès","state_name":"Barcelona","latitude":"41.63333000","longitude":"2.40000000"},{"name":"Lluçà","state_name":"Barcelona","latitude":"0.00000000","longitude":"0.00000000"},{"name":"Malgrat de Mar","state_name":"Barcelona","latitude":"41.64662000","longitude":"2.74135000"},{"name":"Malla","state_name":"Barcelona","latitude":"0.00000000","longitude":"0.00000000"},{"name":"Manlleu","state_name":"Barcelona","latitude":"42.00228000","longitude":"2.28476000"},{"name":"Manresa","state_name":"Barcelona","latitude":"41.72815000","longitude":"1.82399000"},{"name":"Marganell","state_name":"Barcelona","latitude":"0.00000000","longitude":"0.00000000"},{"name":"Martorell","state_name":"Barcelona","latitude":"41.47402000","longitude":"1.93062000"},{"name":"Martorelles","state_name":"Barcelona","latitude":"0.00000000","longitude":"0.00000000"},{"name":"Masies de Roda Les","state_name":"Barcelona","latitude":"0.00000000","longitude":"0.00000000"},{"name":"Masies de Voltregà Les","state_name":"Barcelona","latitude":"0.00000000","longitude":"0.00000000"},{"name":"Masnou El","state_name":"Barcelona","latitude":"0.00000000","longitude":"0.00000000"},{"name":"Masquefa","state_name":"Barcelona","latitude":"41.50353000","longitude":"1.81136000"},{"name":"Matadepera","state_name":"Barcelona","latitude":"41.59886000","longitude":"2.02648000"},{"name":"Mataró","state_name":"Barcelona","latitude":"41.54211000","longitude":"2.44450000"},{"name":"Mediona","state_name":"Barcelona","latitude":"41.47798000","longitude":"1.61222000"},{"name":"Moià","state_name":"Barcelona","latitude":"41.81112000","longitude":"2.09839000"},{"name":"Molins de Rei","state_name":"Barcelona","latitude":"41.41667000","longitude":"2.01667000"},{"name":"Mollet del Vallès","state_name":"Barcelona","latitude":"41.54026000","longitude":"2.21306000"},{"name":"Monistrol de Calders","state_name":"Barcelona","latitude":"0.00000000","longitude":"0.00000000"},{"name":"Monistrol de Montserrat","state_name":"Barcelona","latitude":"41.61667000","longitude":"1.85000000"},{"name":"Montcada i Reixac","state_name":"Barcelona","latitude":"41.48333000","longitude":"2.18333000"},{"name":"Montclar","state_name":"Barcelona","latitude":"0.00000000","longitude":"0.00000000"},{"name":"Montesquiu","state_name":"Barcelona","latitude":"0.00000000","longitude":"0.00000000"},{"name":"Montgat","state_name":"Barcelona","latitude":"41.46859000","longitude":"2.28001000"},{"name":"Montmajor","state_name":"Barcelona","latitude":"0.00000000","longitude":"0.00000000"},{"name":"Montmaneu","state_name":"Barcelona","latitude":"0.00000000","longitude":"0.00000000"},{"name":"Montmeló","state_name":"Barcelona","latitude":"41.55002000","longitude":"2.24190000"},{"name":"Montornès del Vallès","state_name":"Barcelona","latitude":"41.54206000","longitude":"2.26748000"},{"name":"Montseny","state_name":"Barcelona","latitude":"0.00000000","longitude":"0.00000000"},{"name":"Muntanyola","state_name":"Barcelona","latitude":"0.00000000","longitude":"0.00000000"},{"name":"Mura","state_name":"Barcelona","latitude":"41.69943000","longitude":"1.97612000"},{"name":"Navarcles","state_name":"Barcelona","latitude":"41.75171000","longitude":"1.90357000"},{"name":"Navas","state_name":"Barcelona","latitude":"41.41803000","longitude":"2.18596000"},{"name":"Nou de Berguedà La","state_name":"Barcelona","latitude":"0.00000000","longitude":"0.00000000"},{"name":"Òdena","state_name":"Barcelona","latitude":"41.60000000","longitude":"1.65000000"},{"name":"Olèrdola","state_name":"Barcelona","latitude":"0.00000000","longitude":"0.00000000"},{"name":"Olesa de Bonesvalls","state_name":"Barcelona","latitude":"41.35435000","longitude":"1.84907000"},{"name":"Olesa de Montserrat","state_name":"Barcelona","latitude":"41.54372000","longitude":"1.89407000"},{"name":"Olivella","state_name":"Barcelona","latitude":"41.31667000","longitude":"1.81667000"},{"name":"Olost","state_name":"Barcelona","latitude":"41.98540000","longitude":"2.09457000"},{"name":"Olvan","state_name":"Barcelona","latitude":"0.00000000","longitude":"0.00000000"},{"name":"Orís","state_name":"Barcelona","latitude":"42.05967000","longitude":"2.22066000"},{"name":"Oristà","state_name":"Barcelona","latitude":"41.93333000","longitude":"2.06667000"},{"name":"Orpí","state_name":"Barcelona","latitude":"41.51870000","longitude":"1.57536000"},{"name":"Òrrius","state_name":"Barcelona","latitude":"41.55000000","longitude":"2.35000000"},{"name":"Pacs del Penedès","state_name":"Barcelona","latitude":"0.00000000","longitude":"0.00000000"},{"name":"Palafolls","state_name":"Barcelona","latitude":"0.00000000","longitude":"0.00000000"},{"name":"Palau-solità i Plegamans","state_name":"Barcelona","latitude":"0.00000000","longitude":"0.00000000"},{"name":"Pallejà","state_name":"Barcelona","latitude":"41.42394000","longitude":"1.99505000"},{"name":"Palma de Cervelló La","state_name":"Barcelona","latitude":"0.00000000","longitude":"0.00000000"},{"name":"Papiol El","state_name":"Barcelona","latitude":"0.00000000","longitude":"0.00000000"},{"name":"Parets del Vallès","state_name":"Barcelona","latitude":"41.57481000","longitude":"2.23306000"},{"name":"Perafita","state_name":"Barcelona","latitude":"0.00000000","longitude":"0.00000000"},{"name":"Piera","state_name":"Barcelona","latitude":"41.52232000","longitude":"1.75076000"},{"name":"Pineda de Mar","state_name":"Barcelona","latitude":"41.62763000","longitude":"2.68890000"},{"name":"Pla del Penedès El","state_name":"Barcelona","latitude":"0.00000000","longitude":"0.00000000"},{"name":"Pobla de Claramunt La","state_name":"Barcelona","latitude":"0.00000000","longitude":"0.00000000"},{"name":"Pobla de Lillet La","state_name":"Barcelona","latitude":"0.00000000","longitude":"0.00000000"},{"name":"Polinyà","state_name":"Barcelona","latitude":"41.55000000","longitude":"2.15000000"},{"name":"Pont de Vilomara i Rocafort El","state_name":"Barcelona","latitude":"0.00000000","longitude":"0.00000000"},{"name":"Pontons","state_name":"Barcelona","latitude":"0.00000000","longitude":"0.00000000"},{"name":"Prat de Llobregat El","state_name":"Barcelona","latitude":"0.00000000","longitude":"0.00000000"},{"name":"Prats de Lluçanès","state_name":"Barcelona","latitude":"0.00000000","longitude":"0.00000000"},{"name":"Prats de Rei Els","state_name":"Barcelona","latitude":"0.00000000","longitude":"0.00000000"},{"name":"Premià de Dalt","state_name":"Barcelona","latitude":"0.00000000","longitude":"0.00000000"},{"name":"Premià de Mar","state_name":"Barcelona","latitude":"41.49206000","longitude":"2.36524000"},{"name":"Puig-reig","state_name":"Barcelona","latitude":"0.00000000","longitude":"0.00000000"},{"name":"Puigdàlber","state_name":"Barcelona","latitude":"0.00000000","longitude":"0.00000000"},{"name":"Pujalt","state_name":"Barcelona","latitude":"41.71710000","longitude":"1.42088000"},{"name":"Quar La","state_name":"Barcelona","latitude":"0.00000000","longitude":"0.00000000"},{"name":"Rajadell","state_name":"Barcelona","latitude":"41.72802000","longitude":"1.70621000"},{"name":"Rellinars","state_name":"Barcelona","latitude":"0.00000000","longitude":"0.00000000"},{"name":"Ripollet","state_name":"Barcelona","latitude":"41.49686000","longitude":"2.15739000"},{"name":"Roca del Vallès La","state_name":"Barcelona","latitude":"0.00000000","longitude":"0.00000000"},{"name":"Roda de Ter","state_name":"Barcelona","latitude":"0.00000000","longitude":"0.00000000"},{"name":"Rubí","state_name":"Barcelona","latitude":"41.49226000","longitude":"2.03305000"},{"name":"Rubió","state_name":"Barcelona","latitude":"0.00000000","longitude":"0.00000000"},{"name":"Rupit i Pruit","state_name":"Barcelona","latitude":"0.00000000","longitude":"0.00000000"},{"name":"Sabadell","state_name":"Barcelona","latitude":"41.54329000","longitude":"2.10942000"},{"name":"Sagàs","state_name":"Barcelona","latitude":"42.05000000","longitude":"1.96667000"},{"name":"Saldes","state_name":"Barcelona","latitude":"0.00000000","longitude":"0.00000000"},{"name":"Sallent","state_name":"Barcelona","latitude":"41.82602000","longitude":"1.89550000"},{"name":"Sant Adrià de Besòs","state_name":"Barcelona","latitude":"41.43073000","longitude":"2.21855000"},{"name":"Sant Agustí de Lluçanès","state_name":"Barcelona","latitude":"0.00000000","longitude":"0.00000000"},{"name":"Sant Andreu de la Barca","state_name":"Barcelona","latitude":"41.44659000","longitude":"1.97187000"},{"name":"Sant Andreu de Llavaneres","state_name":"Barcelona","latitude":"41.56667000","longitude":"2.48333000"},{"name":"Sant Antoni de Vilamajor","state_name":"Barcelona","latitude":"0.00000000","longitude":"0.00000000"},{"name":"Sant Bartomeu del Grau","state_name":"Barcelona","latitude":"0.00000000","longitude":"0.00000000"},{"name":"Sant Boi de Llobregat","state_name":"Barcelona","latitude":"41.34357000","longitude":"2.03659000"},{"name":"Sant Boi de Lluçanès","state_name":"Barcelona","latitude":"0.00000000","longitude":"0.00000000"},{"name":"Sant Cebrià de Vallalta","state_name":"Barcelona","latitude":"0.00000000","longitude":"0.00000000"},{"name":"Sant Celoni","state_name":"Barcelona","latitude":"41.68921000","longitude":"2.48965000"},{"name":"Sant Climent de Llobregat","state_name":"Barcelona","latitude":"0.00000000","longitude":"0.00000000"},{"name":"Sant Cugat del Vallès","state_name":"Barcelona","latitude":"41.47063000","longitude":"2.08611000"},{"name":"Sant Cugat Sesgarrigues","state_name":"Barcelona","latitude":"0.00000000","longitude":"0.00000000"},{"name":"Sant Esteve de Palautordera","state_name":"Barcelona","latitude":"0.00000000","longitude":"0.00000000"},{"name":"Sant Esteve Sesrovires","state_name":"Barcelona","latitude":"0.00000000","longitude":"0.00000000"},{"name":"Sant Feliu de Codines","state_name":"Barcelona","latitude":"0.00000000","longitude":"0.00000000"},{"name":"Sant Feliu de Llobregat","state_name":"Barcelona","latitude":"41.38333000","longitude":"2.05000000"},{"name":"Sant Feliu Sasserra","state_name":"Barcelona","latitude":"0.00000000","longitude":"0.00000000"},{"name":"Sant Fost de Campsentelles","state_name":"Barcelona","latitude":"0.00000000","longitude":"0.00000000"},{"name":"Sant Fruitós de Bages","state_name":"Barcelona","latitude":"0.00000000","longitude":"0.00000000"},{"name":"Sant Hipòlit de Voltregà","state_name":"Barcelona","latitude":"0.00000000","longitude":"0.00000000"},{"name":"Sant Iscle de Vallalta","state_name":"Barcelona","latitude":"0.00000000","longitude":"0.00000000"},{"name":"Sant Jaume de Frontanyà","state_name":"Barcelona","latitude":"0.00000000","longitude":"0.00000000"},{"name":"Sant Joan de Vilatorrada","state_name":"Barcelona","latitude":"41.74549000","longitude":"1.80476000"},{"name":"Sant Joan Despí","state_name":"Barcelona","latitude":"41.36718000","longitude":"2.05740000"},{"name":"Sant Julià de Cerdanyola","state_name":"Barcelona","latitude":"42.22350000","longitude":"1.89308000"},{"name":"Sant Julià de Vilatorta","state_name":"Barcelona","latitude":"0.00000000","longitude":"0.00000000"},{"name":"Sant Just Desvern","state_name":"Barcelona","latitude":"41.38389000","longitude":"2.06758000"},{"name":"Sant Llorenç dHortons","state_name":"Barcelona","latitude":"0.00000000","longitude":"0.00000000"},{"name":"Sant Llorenç Savall","state_name":"Barcelona","latitude":"0.00000000","longitude":"0.00000000"},{"name":"Sant Martí dAlbars","state_name":"Barcelona","latitude":"0.00000000","longitude":"0.00000000"},{"name":"Sant Martí de Centelles","state_name":"Barcelona","latitude":"41.76617000","longitude":"2.20566000"},{"name":"Sant Martí de Tous","state_name":"Barcelona","latitude":"41.55000000","longitude":"1.51667000"},{"name":"Sant Martí Sarroca","state_name":"Barcelona","latitude":"41.38576000","longitude":"1.61121000"},{"name":"Sant Martí Sesgueioles","state_name":"Barcelona","latitude":"0.00000000","longitude":"0.00000000"},{"name":"Sant Mateu de Bages","state_name":"Barcelona","latitude":"0.00000000","longitude":"0.00000000"},{"name":"Sant Pere de Ribes","state_name":"Barcelona","latitude":"41.26045000","longitude":"1.77391000"},{"name":"Sant Pere de Riudebitlles","state_name":"Barcelona","latitude":"41.45000000","longitude":"1.70000000"},{"name":"Sant Pere de Torelló","state_name":"Barcelona","latitude":"0.00000000","longitude":"0.00000000"},{"name":"Sant Pere de Vilamajor","state_name":"Barcelona","latitude":"0.00000000","longitude":"0.00000000"},{"name":"Sant Pere Sallavinera","state_name":"Barcelona","latitude":"0.00000000","longitude":"0.00000000"},{"name":"Sant Pol de Mar","state_name":"Barcelona","latitude":"41.60177000","longitude":"2.61741000"},{"name":"Sant Quintí de Mediona","state_name":"Barcelona","latitude":"0.00000000","longitude":"0.00000000"},{"name":"Sant Quirze de Besora","state_name":"Barcelona","latitude":"0.00000000","longitude":"0.00000000"},{"name":"Sant Quirze del Vallès","state_name":"Barcelona","latitude":"41.53333000","longitude":"2.08333000"},{"name":"Sant Quirze Safaja","state_name":"Barcelona","latitude":"0.00000000","longitude":"0.00000000"},{"name":"Sant Sadurní dAnoia","state_name":"Barcelona","latitude":"0.00000000","longitude":"0.00000000"},{"name":"Sant Sadurní dOsormort","state_name":"Barcelona","latitude":"0.00000000","longitude":"0.00000000"},{"name":"Sant Salvador de Guardiola","state_name":"Barcelona","latitude":"41.68333000","longitude":"1.76667000"},{"name":"Sant Vicenç de Castellet","state_name":"Barcelona","latitude":"41.66667000","longitude":"1.86667000"},{"name":"Sant Vicenç de Montalt","state_name":"Barcelona","latitude":"41.57853000","longitude":"2.50879000"},{"name":"Sant Vicenç de Torelló","state_name":"Barcelona","latitude":"0.00000000","longitude":"0.00000000"},{"name":"Sant Vicenç dels Horts","state_name":"Barcelona","latitude":"41.39317000","longitude":"2.00689000"},{"name":"Santa Cecília de Voltregà","state_name":"Barcelona","latitude":"42.00000000","longitude":"2.23333000"},{"name":"Santa Coloma de Cervelló","state_name":"Barcelona","latitude":"41.36736000","longitude":"2.01426000"},{"name":"Santa Coloma de Gramenet","state_name":"Barcelona","latitude":"41.45152000","longitude":"2.20810000"},{"name":"Santa Eugènia de Berga","state_name":"Barcelona","latitude":"41.90000000","longitude":"2.28333000"},{"name":"Santa Eulàlia de Riuprimer","state_name":"Barcelona","latitude":"0.00000000","longitude":"0.00000000"},{"name":"Santa Eulàlia de Ronçana","state_name":"Barcelona","latitude":"41.65000000","longitude":"2.23333000"},{"name":"Santa Fe del Penedès","state_name":"Barcelona","latitude":"0.00000000","longitude":"0.00000000"},{"name":"Santa Margarida de Montbui","state_name":"Barcelona","latitude":"0.00000000","longitude":"0.00000000"},{"name":"Santa Margarida i els Monjos","state_name":"Barcelona","latitude":"0.00000000","longitude":"0.00000000"},{"name":"Santa Maria de Besora","state_name":"Barcelona","latitude":"0.00000000","longitude":"0.00000000"},{"name":"Santa Maria de Corcó","state_name":"Barcelona","latitude":"42.03333000","longitude":"2.36667000"},{"name":"Santa Maria de Martorelles","state_name":"Barcelona","latitude":"0.00000000","longitude":"0.00000000"},{"name":"Santa Maria de Merlès","state_name":"Barcelona","latitude":"0.00000000","longitude":"0.00000000"},{"name":"Santa Maria de Miralles","state_name":"Barcelona","latitude":"0.00000000","longitude":"0.00000000"},{"name":"Santa Maria de Palautordera","state_name":"Barcelona","latitude":"41.69417000","longitude":"2.44566000"},{"name":"Santa Maria dOló","state_name":"Barcelona","latitude":"0.00000000","longitude":"0.00000000"},{"name":"Santa Perpètua de Mogoda","state_name":"Barcelona","latitude":"41.53333000","longitude":"2.18333000"},{"name":"Santa Susanna","state_name":"Barcelona","latitude":"41.63333000","longitude":"2.71667000"},{"name":"Santpedor","state_name":"Barcelona","latitude":"0.00000000","longitude":"0.00000000"},{"name":"Sentmenat","state_name":"Barcelona","latitude":"41.60862000","longitude":"2.13532000"},{"name":"Seva","state_name":"Barcelona","latitude":"41.83831000","longitude":"2.28007000"},{"name":"Sitges","state_name":"Barcelona","latitude":"41.23506000","longitude":"1.81193000"},{"name":"Sobremunt","state_name":"Barcelona","latitude":"0.00000000","longitude":"0.00000000"},{"name":"Sora","state_name":"Barcelona","latitude":"0.00000000","longitude":"0.00000000"},{"name":"Subirats","state_name":"Barcelona","latitude":"41.40000000","longitude":"1.83333000"},{"name":"Súria","state_name":"Barcelona","latitude":"41.83333000","longitude":"1.75000000"},{"name":"Tagamanent","state_name":"Barcelona","latitude":"41.73747000","longitude":"2.26720000"},{"name":"Talamanca","state_name":"Barcelona","latitude":"41.73740000","longitude":"1.97791000"},{"name":"Taradell","state_name":"Barcelona","latitude":"41.87495000","longitude":"2.28662000"},{"name":"Tavèrnoles","state_name":"Barcelona","latitude":"0.00000000","longitude":"0.00000000"},{"name":"Tavertet","state_name":"Barcelona","latitude":"41.99572000","longitude":"2.41859000"},{"name":"Teià","state_name":"Barcelona","latitude":"41.49804000","longitude":"2.32206000"},{"name":"Terrassa","state_name":"Barcelona","latitude":"41.56667000","longitude":"2.01667000"},{"name":"Tiana","state_name":"Barcelona","latitude":"41.48201000","longitude":"2.26702000"},{"name":"Tona","state_name":"Barcelona","latitude":"41.84789000","longitude":"2.22808000"},{"name":"Tordera","state_name":"Barcelona","latitude":"41.69914000","longitude":"2.71888000"},{"name":"Torelló","state_name":"Barcelona","latitude":"42.04627000","longitude":"2.26679000"},{"name":"Torre de Claramunt La","state_name":"Barcelona","latitude":"0.00000000","longitude":"0.00000000"},{"name":"Torrelavit","state_name":"Barcelona","latitude":"0.00000000","longitude":"0.00000000"},{"name":"Torrelles de Foix","state_name":"Barcelona","latitude":"0.00000000","longitude":"0.00000000"},{"name":"Torrelles de Llobregat","state_name":"Barcelona","latitude":"41.35000000","longitude":"1.98333000"},{"name":"Ullastrell","state_name":"Barcelona","latitude":"41.52643000","longitude":"1.95537000"},{"name":"Vacarisses","state_name":"Barcelona","latitude":"0.00000000","longitude":"0.00000000"},{"name":"Vallbona dAnoia","state_name":"Barcelona","latitude":"0.00000000","longitude":"0.00000000"},{"name":"Vallcebre","state_name":"Barcelona","latitude":"0.00000000","longitude":"0.00000000"},{"name":"Vallgorguina","state_name":"Barcelona","latitude":"41.64822000","longitude":"2.50996000"},{"name":"Vallirana","state_name":"Barcelona","latitude":"41.38676000","longitude":"1.93205000"},{"name":"Vallromanes","state_name":"Barcelona","latitude":"0.00000000","longitude":"0.00000000"},{"name":"Veciana","state_name":"Barcelona","latitude":"0.00000000","longitude":"0.00000000"},{"name":"Vic","state_name":"Barcelona","latitude":"41.93012000","longitude":"2.25486000"},{"name":"Vilada","state_name":"Barcelona","latitude":"0.00000000","longitude":"0.00000000"},{"name":"Viladecans","state_name":"Barcelona","latitude":"41.31405000","longitude":"2.01427000"},{"name":"Viladecavalls","state_name":"Barcelona","latitude":"0.00000000","longitude":"0.00000000"},{"name":"Vilafranca del Penedès","state_name":"Barcelona","latitude":"41.34618000","longitude":"1.69713000"},{"name":"Vilalba Sasserra","state_name":"Barcelona","latitude":"0.00000000","longitude":"0.00000000"},{"name":"Vilanova de Sau","state_name":"Barcelona","latitude":"41.94700000","longitude":"2.38440000"},{"name":"Vilanova del Camí","state_name":"Barcelona","latitude":"41.57165000","longitude":"1.63751000"},{"name":"Vilanova del Vallès","state_name":"Barcelona","latitude":"0.00000000","longitude":"0.00000000"},{"name":"Vilanova i la Geltrú","state_name":"Barcelona","latitude":"41.22392000","longitude":"1.72511000"},{"name":"Vilassar de Dalt","state_name":"Barcelona","latitude":"0.00000000","longitude":"0.00000000"},{"name":"Vilassar de Mar","state_name":"Barcelona","latitude":"41.50507000","longitude":"2.39227000"},{"name":"Vilobí del Penedès","state_name":"Barcelona","latitude":"0.00000000","longitude":"0.00000000"},{"name":"Viver i Serrateix","state_name":"Barcelona","latitude":"0.00000000","longitude":"0.00000000"},{"name":"Abadiño","state_name":"Bizkaia","latitude":"0.00000000","longitude":"0.00000000"},{"name":"Abanto y Ciérvana-Abanto Zierbena","state_name":"Bizkaia","latitude":"0.00000000","longitude":"0.00000000"},{"name":"Ajangiz","state_name":"Bizkaia","latitude":"0.00000000","longitude":"0.00000000"},{"name":"Alonsotegi","state_name":"Bizkaia","latitude":"43.24483000","longitude":"-2.98759000"},{"name":"Amorebieta-Etxano","state_name":"Bizkaia","latitude":"0.00000000","longitude":"0.00000000"},{"name":"Amoroto","state_name":"Bizkaia","latitude":"43.32634000","longitude":"-2.51349000"},{"name":"Arakaldo","state_name":"Bizkaia","latitude":"0.00000000","longitude":"0.00000000"},{"name":"Arantzazu","state_name":"Bizkaia","latitude":"0.00000000","longitude":"0.00000000"},{"name":"Areatza","state_name":"Bizkaia","latitude":"0.00000000","longitude":"0.00000000"},{"name":"Arrankudiaga","state_name":"Bizkaia","latitude":"0.00000000","longitude":"0.00000000"},{"name":"Arratzu","state_name":"Bizkaia","latitude":"0.00000000","longitude":"0.00000000"},{"name":"Arrieta","state_name":"Bizkaia","latitude":"0.00000000","longitude":"0.00000000"},{"name":"Arrigorriaga","state_name":"Bizkaia","latitude":"43.21006000","longitude":"-2.88562000"},{"name":"Artea","state_name":"Bizkaia","latitude":"0.00000000","longitude":"0.00000000"},{"name":"Artzentales","state_name":"Bizkaia","latitude":"0.00000000","longitude":"0.00000000"},{"name":"Atxondo","state_name":"Bizkaia","latitude":"0.00000000","longitude":"0.00000000"},{"name":"Aulesti","state_name":"Bizkaia","latitude":"43.30000000","longitude":"-2.56667000"},{"name":"Bakio","state_name":"Bizkaia","latitude":"43.42917000","longitude":"-2.80881000"},{"name":"Balmaseda","state_name":"Bizkaia","latitude":"0.00000000","longitude":"0.00000000"},{"name":"Barakaldo","state_name":"Bizkaia","latitude":"43.29639000","longitude":"-2.98813000"},{"name":"Barrika","state_name":"Bizkaia","latitude":"0.00000000","longitude":"0.00000000"},{"name":"Basauri","state_name":"Bizkaia","latitude":"43.23970000","longitude":"-2.88580000"},{"name":"Bedia","state_name":"Bizkaia","latitude":"0.00000000","longitude":"0.00000000"},{"name":"Berango","state_name":"Bizkaia","latitude":"43.36500000","longitude":"-2.99601000"},{"name":"Bermeo","state_name":"Bizkaia","latitude":"43.42088000","longitude":"-2.72152000"},{"name":"Berriatua","state_name":"Bizkaia","latitude":"43.31667000","longitude":"-2.46667000"},{"name":"Berriz","state_name":"Bizkaia","latitude":"43.16667000","longitude":"-2.56667000"},{"name":"Bilbao","state_name":"Bizkaia","latitude":"43.26271000","longitude":"-2.92528000"},{"name":"Busturia","state_name":"Bizkaia","latitude":"0.00000000","longitude":"0.00000000"},{"name":"Derio","state_name":"Bizkaia","latitude":"43.30544000","longitude":"-2.88116000"},{"name":"Dima","state_name":"Bizkaia","latitude":"0.00000000","longitude":"0.00000000"},{"name":"Durango","state_name":"Bizkaia","latitude":"43.17124000","longitude":"-2.63380000"},{"name":"Ea","state_name":"Bizkaia","latitude":"43.37985000","longitude":"-2.58556000"},{"name":"Elantxobe","state_name":"Bizkaia","latitude":"0.00000000","longitude":"0.00000000"},{"name":"Elorrio","state_name":"Bizkaia","latitude":"43.12924000","longitude":"-2.54056000"},{"name":"Erandio","state_name":"Bizkaia","latitude":"43.30438000","longitude":"-2.97352000"},{"name":"Ereño","state_name":"Bizkaia","latitude":"0.00000000","longitude":"0.00000000"},{"name":"Ermua","state_name":"Bizkaia","latitude":"43.18725000","longitude":"-2.50261000"},{"name":"Errigoiti","state_name":"Bizkaia","latitude":"43.31667000","longitude":"-2.71667000"},{"name":"Etxebarri","state_name":"Bizkaia","latitude":"0.00000000","longitude":"0.00000000"},{"name":"Etxebarria","state_name":"Bizkaia","latitude":"0.00000000","longitude":"0.00000000"},{"name":"Forua","state_name":"Bizkaia","latitude":"43.33343000","longitude":"-2.67504000"},{"name":"Fruiz","state_name":"Bizkaia","latitude":"0.00000000","longitude":"0.00000000"},{"name":"Galdakao","state_name":"Bizkaia","latitude":"43.23073000","longitude":"-2.84290000"},{"name":"Galdames","state_name":"Bizkaia","latitude":"0.00000000","longitude":"0.00000000"},{"name":"Gamiz-Fika","state_name":"Bizkaia","latitude":"0.00000000","longitude":"0.00000000"},{"name":"Garai","state_name":"Bizkaia","latitude":"0.00000000","longitude":"0.00000000"},{"name":"Gatika","state_name":"Bizkaia","latitude":"43.36313000","longitude":"-2.87294000"},{"name":"Gautegiz Arteaga","state_name":"Bizkaia","latitude":"0.00000000","longitude":"0.00000000"},{"name":"Gernika-Lumo","state_name":"Bizkaia","latitude":"43.31667000","longitude":"-2.68333000"},{"name":"Getxo","state_name":"Bizkaia","latitude":"43.35689000","longitude":"-3.01146000"},{"name":"Gizaburuaga","state_name":"Bizkaia","latitude":"0.00000000","longitude":"0.00000000"},{"name":"Gordexola","state_name":"Bizkaia","latitude":"0.00000000","longitude":"0.00000000"},{"name":"Gorliz","state_name":"Bizkaia","latitude":"0.00000000","longitude":"0.00000000"},{"name":"Güeñes","state_name":"Bizkaia","latitude":"43.21252000","longitude":"-3.09497000"},{"name":"Ibarrangelu","state_name":"Bizkaia","latitude":"43.39027000","longitude":"-2.63423000"},{"name":"Igorre","state_name":"Bizkaia","latitude":"0.00000000","longitude":"0.00000000"},{"name":"Ispaster","state_name":"Bizkaia","latitude":"0.00000000","longitude":"0.00000000"},{"name":"Iurreta","state_name":"Bizkaia","latitude":"0.00000000","longitude":"0.00000000"},{"name":"Izurtza","state_name":"Bizkaia","latitude":"43.15000000","longitude":"-2.63333000"},{"name":"Karrantza Harana/Valle de Carranza","state_name":"Bizkaia","latitude":"0.00000000","longitude":"0.00000000"},{"name":"Kortezubi","state_name":"Bizkaia","latitude":"0.00000000","longitude":"0.00000000"},{"name":"Lanestosa","state_name":"Bizkaia","latitude":"43.21986000","longitude":"-3.43920000"},{"name":"Larrabetzu","state_name":"Bizkaia","latitude":"0.00000000","longitude":"0.00000000"},{"name":"Laukiz","state_name":"Bizkaia","latitude":"0.00000000","longitude":"0.00000000"},{"name":"Leioa","state_name":"Bizkaia","latitude":"43.32686000","longitude":"-2.98884000"},{"name":"Lekeitio","state_name":"Bizkaia","latitude":"43.36417000","longitude":"-2.50492000"},{"name":"Lemoa","state_name":"Bizkaia","latitude":"0.00000000","longitude":"0.00000000"},{"name":"Lemoiz","state_name":"Bizkaia","latitude":"0.00000000","longitude":"0.00000000"},{"name":"Lezama","state_name":"Bizkaia","latitude":"43.02799000","longitude":"-2.97257000"},{"name":"Loiu","state_name":"Bizkaia","latitude":"0.00000000","longitude":"0.00000000"},{"name":"Mallabia","state_name":"Bizkaia","latitude":"0.00000000","longitude":"0.00000000"},{"name":"Mañaria","state_name":"Bizkaia","latitude":"43.13819000","longitude":"-2.66104000"},{"name":"Markina-Xemein","state_name":"Bizkaia","latitude":"43.26667000","longitude":"-2.50000000"},{"name":"Maruri-Jatabe","state_name":"Bizkaia","latitude":"0.00000000","longitude":"0.00000000"},{"name":"Meñaka","state_name":"Bizkaia","latitude":"0.00000000","longitude":"0.00000000"},{"name":"Mendata","state_name":"Bizkaia","latitude":"0.00000000","longitude":"0.00000000"},{"name":"Mendexa","state_name":"Bizkaia","latitude":"43.34590000","longitude":"-2.48420000"},{"name":"Morga","state_name":"Bizkaia","latitude":"0.00000000","longitude":"0.00000000"},{"name":"Mundaka","state_name":"Bizkaia","latitude":"43.40804000","longitude":"-2.69852000"},{"name":"Mungia","state_name":"Bizkaia","latitude":"43.35461000","longitude":"-2.84524000"},{"name":"Munitibar-Arbatzegi Gerrikaitz","state_name":"Bizkaia","latitude":"0.00000000","longitude":"0.00000000"},{"name":"Murueta","state_name":"Bizkaia","latitude":"0.00000000","longitude":"0.00000000"},{"name":"Muskiz","state_name":"Bizkaia","latitude":"0.00000000","longitude":"0.00000000"},{"name":"Muxika","state_name":"Bizkaia","latitude":"0.00000000","longitude":"0.00000000"},{"name":"Nabarniz","state_name":"Bizkaia","latitude":"0.00000000","longitude":"0.00000000"},{"name":"Ondarroa","state_name":"Bizkaia","latitude":"43.31667000","longitude":"-2.41667000"},{"name":"Orozko","state_name":"Bizkaia","latitude":"0.00000000","longitude":"0.00000000"},{"name":"Ortuella","state_name":"Bizkaia","latitude":"43.31113000","longitude":"-3.05617000"},{"name":"Otxandio","state_name":"Bizkaia","latitude":"0.00000000","longitude":"0.00000000"},{"name":"Plentzia","state_name":"Bizkaia","latitude":"43.40530000","longitude":"-2.94794000"},{"name":"Portugalete","state_name":"Bizkaia","latitude":"43.32099000","longitude":"-3.02064000"},{"name":"Santurtzi","state_name":"Bizkaia","latitude":"43.32842000","longitude":"-3.03248000"},{"name":"Sestao","state_name":"Bizkaia","latitude":"43.30975000","longitude":"-3.00716000"},{"name":"Sondika","state_name":"Bizkaia","latitude":"43.30020000","longitude":"-2.92442000"},{"name":"Sopelana","state_name":"Bizkaia","latitude":"0.00000000","longitude":"0.00000000"},{"name":"Sopuerta","state_name":"Bizkaia","latitude":"43.26239000","longitude":"-3.15505000"},{"name":"Sukarrieta","state_name":"Bizkaia","latitude":"0.00000000","longitude":"0.00000000"},{"name":"Trucios-Turtzioz","state_name":"Bizkaia","latitude":"0.00000000","longitude":"0.00000000"},{"name":"Ubide","state_name":"Bizkaia","latitude":"0.00000000","longitude":"0.00000000"},{"name":"Ugao-Miraballes","state_name":"Bizkaia","latitude":"0.00000000","longitude":"0.00000000"},{"name":"Urduliz","state_name":"Bizkaia","latitude":"0.00000000","longitude":"0.00000000"},{"name":"Urduña/Orduña","state_name":"Bizkaia","latitude":"0.00000000","longitude":"0.00000000"},{"name":"Valle de Trápaga-Trapagaran","state_name":"Bizkaia","latitude":"0.00000000","longitude":"0.00000000"},{"name":"Zaldibar","state_name":"Bizkaia","latitude":"43.16667000","longitude":"-2.53333000"},{"name":"Zalla","state_name":"Bizkaia","latitude":"43.23333000","longitude":"-3.13333000"},{"name":"Zamudio","state_name":"Bizkaia","latitude":"43.28600000","longitude":"-2.87000000"},{"name":"Zaratamo","state_name":"Bizkaia","latitude":"43.21667000","longitude":"-2.86667000"},{"name":"Zeanuri","state_name":"Bizkaia","latitude":"43.10000000","longitude":"-2.75000000"},{"name":"Zeberio","state_name":"Bizkaia","latitude":"0.00000000","longitude":"0.00000000"},{"name":"Zierbena","state_name":"Bizkaia","latitude":"43.35000000","longitude":"-3.08333000"},{"name":"Ziortza-Bolibar","state_name":"Bizkaia","latitude":"0.00000000","longitude":"0.00000000"},{"name":"Abajas","state_name":"Burgos","latitude":"42.62310000","longitude":"-3.58086000"},{"name":"Adrada de Haza","state_name":"Burgos","latitude":"41.59454000","longitude":"-3.82327000"},{"name":"Aguas Cándidas","state_name":"Burgos","latitude":"0.00000000","longitude":"0.00000000"},{"name":"Aguilar de Bureba","state_name":"Burgos","latitude":"42.58974000","longitude":"-3.32913000"},{"name":"Albillos","state_name":"Burgos","latitude":"42.27680000","longitude":"-3.78908000"},{"name":"Alcocero de Mola","state_name":"Burgos","latitude":"42.47222000","longitude":"-3.35790000"},{"name":"Alfoz de Bricia","state_name":"Burgos","latitude":"0.00000000","longitude":"0.00000000"},{"name":"Alfoz de Quintanadueñas","state_name":"Burgos","latitude":"0.00000000","longitude":"0.00000000"},{"name":"Alfoz de Santa Gadea","state_name":"Burgos","latitude":"0.00000000","longitude":"0.00000000"},{"name":"Altable","state_name":"Burgos","latitude":"42.60276000","longitude":"-3.07719000"},{"name":"Altos Los","state_name":"Burgos","latitude":"0.00000000","longitude":"0.00000000"},{"name":"Ameyugo","state_name":"Burgos","latitude":"42.65617000","longitude":"-3.06170000"},{"name":"Anguix","state_name":"Burgos","latitude":"41.75331000","longitude":"-3.93125000"},{"name":"Aranda de Duero","state_name":"Burgos","latitude":"41.67041000","longitude":"-3.68920000"},{"name":"Arandilla","state_name":"Burgos","latitude":"41.73778000","longitude":"-3.42914000"},{"name":"Arauzo de Miel","state_name":"Burgos","latitude":"41.85878000","longitude":"-3.38773000"},{"name":"Arauzo de Salce","state_name":"Burgos","latitude":"41.81919000","longitude":"-3.41191000"},{"name":"Arauzo de Torre","state_name":"Burgos","latitude":"41.79818000","longitude":"-3.42314000"},{"name":"Arcos","state_name":"Burgos","latitude":"42.26664000","longitude":"-3.75458000"},{"name":"Arenillas de Riopisuerga","state_name":"Burgos","latitude":"0.00000000","longitude":"0.00000000"},{"name":"Arija","state_name":"Burgos","latitude":"42.99350000","longitude":"-3.94497000"},{"name":"Arlanzón","state_name":"Burgos","latitude":"42.32267000","longitude":"-3.45784000"},{"name":"Arraya de Oca","state_name":"Burgos","latitude":"42.41488000","longitude":"-3.39781000"},{"name":"Atapuerca","state_name":"Burgos","latitude":"42.37757000","longitude":"-3.50790000"},{"name":"Ausines Los","state_name":"Burgos","latitude":"0.00000000","longitude":"0.00000000"},{"name":"Avellanosa de Muñó","state_name":"Burgos","latitude":"41.98349000","longitude":"-3.82553000"},{"name":"Bahabón de Esgueva","state_name":"Burgos","latitude":"41.86162000","longitude":"-3.72980000"},{"name":"Balbases Los","state_name":"Burgos","latitude":"0.00000000","longitude":"0.00000000"},{"name":"Baños de Valdearados","state_name":"Burgos","latitude":"41.77010000","longitude":"-3.55589000"},{"name":"Bañuelos de Bureba","state_name":"Burgos","latitude":"42.50258000","longitude":"-3.27957000"},{"name":"Barbadillo de Herreros","state_name":"Burgos","latitude":"42.14974000","longitude":"-3.17702000"},{"name":"Barbadillo del Mercado","state_name":"Burgos","latitude":"42.03858000","longitude":"-3.35669000"},{"name":"Barbadillo del Pez","state_name":"Burgos","latitude":"42.11879000","longitude":"-3.22803000"},{"name":"Barrio de Muñó","state_name":"Burgos","latitude":"42.17584000","longitude":"-4.00715000"},{"name":"Barrios de Bureba Los","state_name":"Burgos","latitude":"0.00000000","longitude":"0.00000000"},{"name":"Barrios de Colina","state_name":"Burgos","latitude":"42.39595000","longitude":"-3.46001000"},{"name":"Basconcillos del Tozo","state_name":"Burgos","latitude":"42.70236000","longitude":"-3.98937000"},{"name":"Bascuñana","state_name":"Burgos","latitude":"42.42548000","longitude":"-3.08231000"},{"name":"Belbimbre","state_name":"Burgos","latitude":"42.16873000","longitude":"-4.01280000"},{"name":"Belorado","state_name":"Burgos","latitude":"42.42048000","longitude":"-3.19133000"},{"name":"Berberana","state_name":"Burgos","latitude":"42.91784000","longitude":"-3.06063000"},{"name":"Berlangas de Roa","state_name":"Burgos","latitude":"41.68913000","longitude":"-3.87284000"},{"name":"Berzosa de Bureba","state_name":"Burgos","latitude":"42.62678000","longitude":"-3.26652000"},{"name":"Bozoó","state_name":"Burgos","latitude":"0.00000000","longitude":"0.00000000"},{"name":"Brazacorta","state_name":"Burgos","latitude":"41.71737000","longitude":"-3.36711000"},{"name":"Briviesca","state_name":"Burgos","latitude":"42.54993000","longitude":"-3.32315000"},{"name":"Bugedo","state_name":"Burgos","latitude":"42.64912000","longitude":"-3.01786000"},{"name":"Buniel","state_name":"Burgos","latitude":"42.31197000","longitude":"-3.82230000"},{"name":"Burgos","state_name":"Burgos","latitude":"42.34106000","longitude":"-3.70184000"},{"name":"Busto de Bureba","state_name":"Burgos","latitude":"42.65910000","longitude":"-3.26512000"},{"name":"Cabañes de Esgueva","state_name":"Burgos","latitude":"41.83023000","longitude":"-3.78824000"},{"name":"Cabezón de la Sierra","state_name":"Burgos","latitude":"41.93434000","longitude":"-3.24153000"},{"name":"Caleruega","state_name":"Burgos","latitude":"41.82548000","longitude":"-3.48593000"},{"name":"Campillo de Aranda","state_name":"Burgos","latitude":"41.61015000","longitude":"-3.73017000"},{"name":"Campolara","state_name":"Burgos","latitude":"42.11953000","longitude":"-3.42740000"},{"name":"Canicosa de la Sierra","state_name":"Burgos","latitude":"41.93673000","longitude":"-3.04089000"},{"name":"Cantabrana","state_name":"Burgos","latitude":"42.73422000","longitude":"-3.46704000"},{"name":"Carazo","state_name":"Burgos","latitude":"41.96832000","longitude":"-3.35310000"},{"name":"Carcedo de Bureba","state_name":"Burgos","latitude":"42.57818000","longitude":"-3.49831000"},{"name":"Carcedo de Burgos","state_name":"Burgos","latitude":"42.28696000","longitude":"-3.62274000"},{"name":"Cardeñadijo","state_name":"Burgos","latitude":"42.30217000","longitude":"-3.66779000"},{"name":"Cardeñajimeno","state_name":"Burgos","latitude":"42.33038000","longitude":"-3.62103000"},{"name":"Cardeñuela Riopico","state_name":"Burgos","latitude":"0.00000000","longitude":"0.00000000"},{"name":"Carrias","state_name":"Burgos","latitude":"42.48141000","longitude":"-3.28319000"},{"name":"Cascajares de Bureba","state_name":"Burgos","latitude":"42.67884000","longitude":"-3.23768000"},{"name":"Cascajares de la Sierra","state_name":"Burgos","latitude":"42.06177000","longitude":"-3.39936000"},{"name":"Castellanos de Castro","state_name":"Burgos","latitude":"42.32806000","longitude":"-4.03417000"},{"name":"Castil de Peones","state_name":"Burgos","latitude":"42.48347000","longitude":"-3.38461000"},{"name":"Castildelgado","state_name":"Burgos","latitude":"42.43756000","longitude":"-3.08389000"},{"name":"Castrillo de la Reina","state_name":"Burgos","latitude":"41.98714000","longitude":"-3.23560000"},{"name":"Castrillo de la Vega","state_name":"Burgos","latitude":"41.65166000","longitude":"-3.78089000"},{"name":"Castrillo de Riopisuerga","state_name":"Burgos","latitude":"0.00000000","longitude":"0.00000000"},{"name":"Castrillo del Val","state_name":"Burgos","latitude":"42.31401000","longitude":"-3.58501000"},{"name":"Castrillo Matajudíos","state_name":"Burgos","latitude":"0.00000000","longitude":"0.00000000"},{"name":"Castrojeriz","state_name":"Burgos","latitude":"0.00000000","longitude":"0.00000000"},{"name":"Cavia","state_name":"Burgos","latitude":"0.00000000","longitude":"0.00000000"},{"name":"Cayuela","state_name":"Burgos","latitude":"42.27223000","longitude":"-3.81895000"},{"name":"Cebrecos","state_name":"Burgos","latitude":"41.98408000","longitude":"-3.59661000"},{"name":"Celada del Camino","state_name":"Burgos","latitude":"42.26359000","longitude":"-3.93362000"},{"name":"Cerezo de Río Tirón","state_name":"Burgos","latitude":"0.00000000","longitude":"0.00000000"},{"name":"Cerratón de Juarros","state_name":"Burgos","latitude":"42.42227000","longitude":"-3.37347000"},{"name":"Ciadoncha","state_name":"Burgos","latitude":"42.15814000","longitude":"-3.93235000"},{"name":"Cillaperlata","state_name":"Burgos","latitude":"0.00000000","longitude":"0.00000000"},{"name":"Cilleruelo de Abajo","state_name":"Burgos","latitude":"41.88405000","longitude":"-3.79723000"},{"name":"Cilleruelo de Arriba","state_name":"Burgos","latitude":"41.90487000","longitude":"-3.66102000"},{"name":"Ciruelos de Cervera","state_name":"Burgos","latitude":"41.90562000","longitude":"-3.53015000"},{"name":"Cogollos","state_name":"Burgos","latitude":"42.19982000","longitude":"-3.70005000"},{"name":"Condado de Treviño","state_name":"Burgos","latitude":"0.00000000","longitude":"0.00000000"},{"name":"Contreras","state_name":"Burgos","latitude":"42.02004000","longitude":"-3.41084000"},{"name":"Coruña del Conde","state_name":"Burgos","latitude":"41.76566000","longitude":"-3.39059000"},{"name":"Covarrubias","state_name":"Burgos","latitude":"42.05927000","longitude":"-3.51956000"},{"name":"Cubillo del Campo","state_name":"Burgos","latitude":"42.16854000","longitude":"-3.61025000"},{"name":"Cubo de Bureba","state_name":"Burgos","latitude":"42.64011000","longitude":"-3.20626000"},{"name":"Cueva de Roa La","state_name":"Burgos","latitude":"0.00000000","longitude":"0.00000000"},{"name":"Cuevas de San Clemente","state_name":"Burgos","latitude":"42.13009000","longitude":"-3.56840000"},{"name":"Encío","state_name":"Burgos","latitude":"42.67115000","longitude":"-3.08680000"},{"name":"Espinosa de Cervera","state_name":"Burgos","latitude":"41.89683000","longitude":"-3.46858000"},{"name":"Espinosa de los Monteros","state_name":"Burgos","latitude":"43.07754000","longitude":"-3.55365000"},{"name":"Espinosa del Camino","state_name":"Burgos","latitude":"42.40590000","longitude":"-3.28019000"},{"name":"Estépar","state_name":"Burgos","latitude":"42.27731000","longitude":"-3.89946000"},{"name":"Fontioso","state_name":"Burgos","latitude":"41.94273000","longitude":"-3.73872000"},{"name":"Frandovínez","state_name":"Burgos","latitude":"42.31032000","longitude":"-3.83783000"},{"name":"Fresneda de la Sierra Tirón","state_name":"Burgos","latitude":"42.31535000","longitude":"-3.13596000"},{"name":"Fresneña","state_name":"Burgos","latitude":"42.41366000","longitude":"-3.13453000"},{"name":"Fresnillo de las Dueñas","state_name":"Burgos","latitude":"41.64700000","longitude":"-3.64558000"},{"name":"Fresno de Río Tirón","state_name":"Burgos","latitude":"0.00000000","longitude":"0.00000000"},{"name":"Fresno de Rodilla","state_name":"Burgos","latitude":"42.42054000","longitude":"-3.48507000"},{"name":"Frías","state_name":"Burgos","latitude":"42.76225000","longitude":"-3.29394000"},{"name":"Fuentebureba","state_name":"Burgos","latitude":"42.63400000","longitude":"-3.23510000"},{"name":"Fuentecén","state_name":"Burgos","latitude":"41.62852000","longitude":"-3.86867000"},{"name":"Fuentelcésped","state_name":"Burgos","latitude":"41.59162000","longitude":"-3.64064000"},{"name":"Fuentelisendo","state_name":"Burgos","latitude":"41.62274000","longitude":"-3.90129000"},{"name":"Fuentemolinos","state_name":"Burgos","latitude":"41.60477000","longitude":"-3.85005000"},{"name":"Fuentenebro","state_name":"Burgos","latitude":"41.52873000","longitude":"-3.75449000"},{"name":"Fuentespina","state_name":"Burgos","latitude":"41.63079000","longitude":"-3.68475000"},{"name":"Galbarros","state_name":"Burgos","latitude":"42.52729000","longitude":"-3.43827000"},{"name":"Gallega La","state_name":"Burgos","latitude":"0.00000000","longitude":"0.00000000"},{"name":"Grijalba","state_name":"Burgos","latitude":"42.43002000","longitude":"-4.11896000"},{"name":"Grisaleña","state_name":"Burgos","latitude":"42.59122000","longitude":"-3.26416000"},{"name":"Gumiel de Izán","state_name":"Burgos","latitude":"0.00000000","longitude":"0.00000000"},{"name":"Gumiel de Mercado","state_name":"Burgos","latitude":"0.00000000","longitude":"0.00000000"},{"name":"Hacinas","state_name":"Burgos","latitude":"41.98514000","longitude":"-3.28709000"},{"name":"Haza","state_name":"Burgos","latitude":"41.61667000","longitude":"-3.81667000"},{"name":"Hontanas","state_name":"Burgos","latitude":"42.31312000","longitude":"-4.04529000"},{"name":"Hontangas","state_name":"Burgos","latitude":"41.58216000","longitude":"-3.79550000"},{"name":"Hontoria de la Cantera","state_name":"Burgos","latitude":"42.18879000","longitude":"-3.64251000"},{"name":"Hontoria de Valdearados","state_name":"Burgos","latitude":"41.74488000","longitude":"-3.51983000"},{"name":"Hontoria del Pinar","state_name":"Burgos","latitude":"41.84838000","longitude":"-3.16245000"},{"name":"Hormazas Las","state_name":"Burgos","latitude":"0.00000000","longitude":"0.00000000"},{"name":"Hornillos del Camino","state_name":"Burgos","latitude":"42.33863000","longitude":"-3.92560000"},{"name":"Horra La","state_name":"Burgos","latitude":"0.00000000","longitude":"0.00000000"},{"name":"Hortigüela","state_name":"Burgos","latitude":"42.06842000","longitude":"-3.42578000"},{"name":"Hoyales de Roa","state_name":"Burgos","latitude":"41.65893000","longitude":"-3.86202000"},{"name":"Huérmeces","state_name":"Burgos","latitude":"42.52250000","longitude":"-3.77072000"},{"name":"Huerta de Arriba","state_name":"Burgos","latitude":"42.11672000","longitude":"-3.08211000"},{"name":"Huerta de Rey","state_name":"Burgos","latitude":"0.00000000","longitude":"0.00000000"},{"name":"Humada","state_name":"Burgos","latitude":"42.66667000","longitude":"-4.08333000"},{"name":"Hurones","state_name":"Burgos","latitude":"42.40571000","longitude":"-3.61588000"},{"name":"Ibeas de Juarros","state_name":"Burgos","latitude":"42.33088000","longitude":"-3.53519000"},{"name":"Ibrillos","state_name":"Burgos","latitude":"42.45431000","longitude":"-3.08238000"},{"name":"Iglesiarrubia","state_name":"Burgos","latitude":"41.97383000","longitude":"-3.84701000"},{"name":"Iglesias","state_name":"Burgos","latitude":"42.29807000","longitude":"-3.98932000"},{"name":"Isar","state_name":"Burgos","latitude":"42.36140000","longitude":"-3.93040000"},{"name":"Itero del Castillo","state_name":"Burgos","latitude":"42.28988000","longitude":"-4.24441000"},{"name":"Jaramillo de la Fuente","state_name":"Burgos","latitude":"42.11472000","longitude":"-3.31239000"},{"name":"Jaramillo Quemado","state_name":"Burgos","latitude":"42.08568000","longitude":"-3.35868000"},{"name":"Junta de Traslaloma","state_name":"Burgos","latitude":"0.00000000","longitude":"0.00000000"},{"name":"Junta de Villalba de Losa","state_name":"Burgos","latitude":"0.00000000","longitude":"0.00000000"},{"name":"Jurisdicción de Lara","state_name":"Burgos","latitude":"0.00000000","longitude":"0.00000000"},{"name":"Jurisdicción de San Zadornil","state_name":"Burgos","latitude":"0.00000000","longitude":"0.00000000"},{"name":"Lerma","state_name":"Burgos","latitude":"42.02609000","longitude":"-3.75978000"},{"name":"Llano de Bureba","state_name":"Burgos","latitude":"42.62435000","longitude":"-3.45890000"},{"name":"Madrigal del Monte","state_name":"Burgos","latitude":"42.14464000","longitude":"-3.67571000"},{"name":"Madrigalejo del Monte","state_name":"Burgos","latitude":"42.12442000","longitude":"-3.72509000"},{"name":"Mahamud","state_name":"Burgos","latitude":"42.11981000","longitude":"-3.94060000"},{"name":"Mambrilla de Castrejón","state_name":"Burgos","latitude":"41.66634000","longitude":"-3.98448000"},{"name":"Mambrillas de Lara","state_name":"Burgos","latitude":"42.09446000","longitude":"-3.46195000"},{"name":"Mamolar","state_name":"Burgos","latitude":"41.92762000","longitude":"-3.36228000"},{"name":"Manciles","state_name":"Burgos","latitude":"42.45728000","longitude":"-3.94461000"},{"name":"Mazuela","state_name":"Burgos","latitude":"42.20767000","longitude":"-3.91920000"},{"name":"Mecerreyes","state_name":"Burgos","latitude":"42.09536000","longitude":"-3.57393000"},{"name":"Medina de Pomar","state_name":"Burgos","latitude":"42.92938000","longitude":"-3.48804000"},{"name":"Melgar de Fernamental","state_name":"Burgos","latitude":"42.40445000","longitude":"-4.24484000"},{"name":"Merindad de Cuesta-Urria","state_name":"Burgos","latitude":"0.00000000","longitude":"0.00000000"},{"name":"Merindad de Montija","state_name":"Burgos","latitude":"0.00000000","longitude":"0.00000000"},{"name":"Merindad de Río Ubierna","state_name":"Burgos","latitude":"0.00000000","longitude":"0.00000000"},{"name":"Merindad de Sotoscueva","state_name":"Burgos","latitude":"0.00000000","longitude":"0.00000000"},{"name":"Merindad de Valdeporres","state_name":"Burgos","latitude":"0.00000000","longitude":"0.00000000"},{"name":"Merindad de Valdivielso","state_name":"Burgos","latitude":"0.00000000","longitude":"0.00000000"},{"name":"Milagros","state_name":"Burgos","latitude":"41.57500000","longitude":"-3.69907000"},{"name":"Miranda de Ebro","state_name":"Burgos","latitude":"42.68650000","longitude":"-2.94695000"},{"name":"Miraveche","state_name":"Burgos","latitude":"42.67396000","longitude":"-3.19947000"},{"name":"Modúbar de la Emparedada","state_name":"Burgos","latitude":"42.26118000","longitude":"-3.65965000"},{"name":"Monasterio de la Sierra","state_name":"Burgos","latitude":"42.05180000","longitude":"-3.19314000"},{"name":"Monasterio de Rodilla","state_name":"Burgos","latitude":"42.45775000","longitude":"-3.46965000"},{"name":"Moncalvillo","state_name":"Burgos","latitude":"41.95413000","longitude":"-3.19886000"},{"name":"Monterrubio de la Demanda","state_name":"Burgos","latitude":"0.00000000","longitude":"0.00000000"},{"name":"Montorio","state_name":"Burgos","latitude":"42.58469000","longitude":"-3.77724000"},{"name":"Moradillo de Roa","state_name":"Burgos","latitude":"41.55164000","longitude":"-3.79118000"},