[
    {
        "country_name": "Afghanistan",
        "name": "Badakhshan",
        "code": "BDS",
        "latitude": "36.73477250",
        "longitude": "70.81199530"
    },
    {
        "country_name": "Afghanistan",
        "name": "Badghis",
        "code": "BDG",
        "latitude": "35.16713390",
        "longitude": "63.76953840"
    },
    {
        "country_name": "Afghanistan",
        "name": "Baghlan",
        "code": "BGL",
        "latitude": "36.17890260",
        "longitude": "68.74530640"
    },
    {
        "country_name": "Afghanistan",
        "name": "Balkh",
        "code": "BAL",
        "latitude": "36.75506030",
        "longitude": "66.89753720"
    },
    {
        "country_name": "Afghanistan",
        "name": "Bamyan",
        "code": "BAM",
        "latitude": "34.81000670",
        "longitude": "67.82121040"
    },
    {
        "country_name": "Afghanistan",
        "name": "Daykundi",
        "code": "DAY",
        "latitude": "33.66949500",
        "longitude": "66.04635340"
    },
    {
        "country_name": "Afghanistan",
        "name": "Farah",
        "code": "FRA",
        "latitude": "32.49532800",
        "longitude": "62.26266270"
    },
    {
        "country_name": "Afghanistan",
        "name": "Faryab",
        "code": "FYB",
        "latitude": "36.07956130",
        "longitude": "64.90595500"
    },
    {
        "country_name": "Afghanistan",
        "name": "Ghazni",
        "code": "GHA",
        "latitude": "33.54505870",
        "longitude": "68.41739720"
    },
    {
        "country_name": "Afghanistan",
        "name": "Gh\u014dr",
        "code": "GHO",
        "latitude": "34.09957760",
        "longitude": "64.90595500"
    },
    {
        "country_name": "Afghanistan",
        "name": "Helmand",
        "code": "HEL",
        "latitude": "39.29893610",
        "longitude": "-76.61604720"
    },
    {
        "country_name": "Afghanistan",
        "name": "Herat",
        "code": "HER",
        "latitude": "34.35286500",
        "longitude": "62.20402870"
    },
    {
        "country_name": "Afghanistan",
        "name": "Jowzjan",
        "code": "JOW",
        "latitude": "36.89696920",
        "longitude": "65.66585680"
    },
    {
        "country_name": "Afghanistan",
        "name": "Kabul",
        "code": "KAB",
        "latitude": "34.55534940",
        "longitude": "69.20748600"
    },
    {
        "country_name": "Afghanistan",
        "name": "Kandahar",
        "code": "KAN",
        "latitude": "31.62887100",
        "longitude": "65.73717490"
    },
    {
        "country_name": "Afghanistan",
        "name": "Kapisa",
        "code": "KAP",
        "latitude": "34.98105720",
        "longitude": "69.62145620"
    },
    {
        "country_name": "Afghanistan",
        "name": "Khost",
        "code": "KHO",
        "latitude": "33.33384720",
        "longitude": "69.93716730"
    },
    {
        "country_name": "Afghanistan",
        "name": "Kunar",
        "code": "KNR",
        "latitude": "34.84658930",
        "longitude": "71.09731700"
    },
    {
        "country_name": "Afghanistan",
        "name": "Kunduz Province",
        "code": "KDZ",
        "latitude": "36.72855110",
        "longitude": "68.86789820"
    },
    {
        "country_name": "Afghanistan",
        "name": "Laghman",
        "code": "LAG",
        "latitude": "34.68976870",
        "longitude": "70.14558050"
    },
    {
        "country_name": "Afghanistan",
        "name": "Logar",
        "code": "LOG",
        "latitude": "34.01455180",
        "longitude": "69.19239160"
    },
    {
        "country_name": "Afghanistan",
        "name": "Nangarhar",
        "code": "NAN",
        "latitude": "34.17183130",
        "longitude": "70.62167940"
    },
    {
        "country_name": "Afghanistan",
        "name": "Nimruz",
        "code": "NIM",
        "latitude": "31.02614880",
        "longitude": "62.45041540"
    },
    {
        "country_name": "Afghanistan",
        "name": "Nuristan",
        "code": "NUR",
        "latitude": "35.32502230",
        "longitude": "70.90712360"
    },
    {
        "country_name": "Afghanistan",
        "name": "Paktia",
        "code": "PIA",
        "latitude": "33.70619900",
        "longitude": "69.38310790"
    },
    {
        "country_name": "Afghanistan",
        "name": "Paktika",
        "code": "PKA",
        "latitude": "32.26453860",
        "longitude": "68.52471490"
    },
    {
        "country_name": "Afghanistan",
        "name": "Panjshir",
        "code": "PAN",
        "latitude": "38.88023910",
        "longitude": "-77.17172380"
    },
    {
        "country_name": "Afghanistan",
        "name": "Parwan",
        "code": "PAR",
        "latitude": "34.96309770",
        "longitude": "68.81088490"
    },
    {
        "country_name": "Afghanistan",
        "name": "Samangan",
        "code": "SAM",
        "latitude": "36.31555060",
        "longitude": "67.96428630"
    },
    {
        "country_name": "Afghanistan",
        "name": "Sar-e Pol",
        "code": "SAR",
        "latitude": "36.21662800",
        "longitude": "65.93336000"
    },
    {
        "country_name": "Afghanistan",
        "name": "Takhar",
        "code": "TAK",
        "latitude": "36.66980130",
        "longitude": "69.47845410"
    },
    {
        "country_name": "Afghanistan",
        "name": "Urozgan",
        "code": "URU",
        "latitude": "32.92712870",
        "longitude": "66.14152630"
    },
    {
        "country_name": "Afghanistan",
        "name": "Zabul",
        "code": "ZAB",
        "latitude": "32.19187820",
        "longitude": "67.18944880"
    },
    {
        "country_name": "Albania",
        "name": "Berat County",
        "code": "01",
        "latitude": "40.69530120",
        "longitude": "20.04496620"
    },
    {
        "country_name": "Albania",
        "name": "Berat District",
        "code": "BR",
        "latitude": "40.70863770",
        "longitude": "19.94373140"
    },
    {
        "country_name": "Albania",
        "name": "Bulqiz\u00eb District",
        "code": "BU",
        "latitude": "41.49425870",
        "longitude": "20.21471570"
    },
    {
        "country_name": "Albania",
        "name": "Delvin\u00eb District",
        "code": "DL",
        "latitude": "39.94813640",
        "longitude": "20.09558910"
    },
    {
        "country_name": "Albania",
        "name": "Devoll District",
        "code": "DV",
        "latitude": "40.64473470",
        "longitude": "20.95066360"
    },
    {
        "country_name": "Albania",
        "name": "Dib\u00ebr County",
        "code": "09",
        "latitude": "41.58881630",
        "longitude": "20.23556470"
    },
    {
        "country_name": "Albania",
        "name": "Dib\u00ebr District",
        "code": "DI",
        "latitude": "41.58881630",
        "longitude": "20.23556470"
    },
    {
        "country_name": "Albania",
        "name": "Durr\u00ebs County",
        "code": "02",
        "latitude": "41.50809720",
        "longitude": "19.61631850"
    },
    {
        "country_name": "Albania",
        "name": "Durr\u00ebs District",
        "code": "DR",
        "latitude": "41.37065170",
        "longitude": "19.52110630"
    },
    {
        "country_name": "Albania",
        "name": "Elbasan County",
        "code": "03",
        "latitude": "41.12666720",
        "longitude": "20.23556470"
    },
    {
        "country_name": "Albania",
        "name": "Fier County",
        "code": "04",
        "latitude": "40.91913920",
        "longitude": "19.66393090"
    },
    {
        "country_name": "Albania",
        "name": "Fier District",
        "code": "FR",
        "latitude": "40.72750400",
        "longitude": "19.56275960"
    },
    {
        "country_name": "Albania",
        "name": "Gjirokast\u00ebr County",
        "code": "05",
        "latitude": "40.06728740",
        "longitude": "20.10452290"
    },
    {
        "country_name": "Albania",
        "name": "Gjirokast\u00ebr District",
        "code": "GJ",
        "latitude": "40.06728740",
        "longitude": "20.10452290"
    },
    {
        "country_name": "Albania",
        "name": "Gramsh District",
        "code": "GR",
        "latitude": "40.86698730",
        "longitude": "20.18493230"
    },
    {
        "country_name": "Albania",
        "name": "Has District",
        "code": "HA",
        "latitude": "42.79013360",
        "longitude": "-83.61220120"
    },
    {
        "country_name": "Albania",
        "name": "Kavaj\u00eb District",
        "code": "KA",
        "latitude": "41.18445290",
        "longitude": "19.56275960"
    },
    {
        "country_name": "Albania",
        "name": "Kolonj\u00eb District",
        "code": "ER",
        "latitude": "40.33732620",
        "longitude": "20.67946760"
    },
    {
        "country_name": "Albania",
        "name": "Kor\u00e7\u00eb County",
        "code": "06",
        "latitude": "40.59056700",
        "longitude": "20.61689210"
    },
    {
        "country_name": "Albania",
        "name": "Kor\u00e7\u00eb District",
        "code": "KO",
        "latitude": "40.59056700",
        "longitude": "20.61689210"
    },
    {
        "country_name": "Albania",
        "name": "Kruj\u00eb District",
        "code": "KR",
        "latitude": "41.50947650",
        "longitude": "19.77107320"
    },
    {
        "country_name": "Albania",
        "name": "Ku\u00e7ov\u00eb District",
        "code": "KC",
        "latitude": "40.78370630",
        "longitude": "19.87823480"
    },
    {
        "country_name": "Albania",
        "name": "Kuk\u00ebs County",
        "code": "07",
        "latitude": "42.08074640",
        "longitude": "20.41429230"
    },
    {
        "country_name": "Albania",
        "name": "Kuk\u00ebs District",
        "code": "KU",
        "latitude": "42.08074640",
        "longitude": "20.41429230"
    },
    {
        "country_name": "Albania",
        "name": "Kurbin District",
        "code": "KB",
        "latitude": "41.64126440",
        "longitude": "19.70559500"
    },
    {
        "country_name": "Albania",
        "name": "Lezh\u00eb County",
        "code": "08",
        "latitude": "41.78137590",
        "longitude": "19.80679160"
    },
    {
        "country_name": "Albania",
        "name": "Lezh\u00eb District",
        "code": "LE",
        "latitude": "41.78607300",
        "longitude": "19.64607580"
    },
    {
        "country_name": "Albania",
        "name": "Librazhd District",
        "code": "LB",
        "latitude": "41.18292320",
        "longitude": "20.31747690"
    },
    {
        "country_name": "Albania",
        "name": "Lushnj\u00eb District",
        "code": "LU",
        "latitude": "40.94198300",
        "longitude": "19.69964280"
    },
    {
        "country_name": "Albania",
        "name": "Mal\u00ebsi e Madhe District",
        "code": "MM",
        "latitude": "42.42451730",
        "longitude": "19.61631850"
    },
    {
        "country_name": "Albania",
        "name": "Mallakast\u00ebr District",
        "code": "MK",
        "latitude": "40.52733760",
        "longitude": "19.78297910"
    },
    {
        "country_name": "Albania",
        "name": "Mat District",
        "code": "MT",
        "latitude": "41.59376750",
        "longitude": "19.99732440"
    },
    {
        "country_name": "Albania",
        "name": "Mirdit\u00eb District",
        "code": "MR",
        "latitude": "41.76428600",
        "longitude": "19.90205090"
    },
    {
        "country_name": "Albania",
        "name": "Peqin District",
        "code": "PQ",
        "latitude": "41.04709020",
        "longitude": "19.75023840"
    },
    {
        "country_name": "Albania",
        "name": "P\u00ebrmet District",
        "code": "PR",
        "latitude": "40.23618370",
        "longitude": "20.35173340"
    },
    {
        "country_name": "Albania",
        "name": "Pogradec District",
        "code": "PG",
        "latitude": "40.90153140",
        "longitude": "20.65562890"
    },
    {
        "country_name": "Albania",
        "name": "Puk\u00eb District",
        "code": "PU",
        "latitude": "42.04697720",
        "longitude": "19.89609680"
    },
    {
        "country_name": "Albania",
        "name": "Sarand\u00eb District",
        "code": "SR",
        "latitude": "39.85921190",
        "longitude": "20.02710010"
    },
    {
        "country_name": "Albania",
        "name": "Shkod\u00ebr County",
        "code": "10",
        "latitude": "42.15037100",
        "longitude": "19.66393090"
    },
    {
        "country_name": "Albania",
        "name": "Shkod\u00ebr District",
        "code": "SH",
        "latitude": "42.06929850",
        "longitude": "19.50325590"
    },
    {
        "country_name": "Albania",
        "name": "Skrapar District",
        "code": "SK",
        "latitude": "40.53499460",
        "longitude": "20.28322170"
    },
    {
        "country_name": "Albania",
        "name": "Tepelen\u00eb District",
        "code": "TE",
        "latitude": "40.29666320",
        "longitude": "20.01816730"
    },
    {
        "country_name": "Albania",
        "name": "Tirana County",
        "code": "11",
        "latitude": "41.24275980",
        "longitude": "19.80679160"
    },
    {
        "country_name": "Albania",
        "name": "Tirana District",
        "code": "TR",
        "latitude": "41.32754590",
        "longitude": "19.81869820"
    },
    {
        "country_name": "Albania",
        "name": "Tropoj\u00eb District",
        "code": "TP",
        "latitude": "42.39821510",
        "longitude": "20.16259550"
    },
    {
        "country_name": "Albania",
        "name": "Vlor\u00eb County",
        "code": "12",
        "latitude": "40.15009600",
        "longitude": "19.80679160"
    },
    {
        "country_name": "Albania",
        "name": "Vlor\u00eb District",
        "code": "VL",
        "latitude": "40.46606680",
        "longitude": "19.49135600"
    },
    {
        "country_name": "Algeria",
        "name": "Adrar",
        "code": "01",
        "latitude": "26.41813100",
        "longitude": "-0.60147170"
    },
    {
        "country_name": "Algeria",
        "name": "A\u00efn Defla",
        "code": "44",
        "latitude": "36.25094290",
        "longitude": "1.93938150"
    },
    {
        "country_name": "Algeria",
        "name": "A\u00efn T\u00e9mouchent",
        "code": "46",
        "latitude": "35.29926980",
        "longitude": "-1.13927920"
    },
    {
        "country_name": "Algeria",
        "name": "Algiers",
        "code": "16",
        "latitude": "36.69972940",
        "longitude": "3.05761990"
    },
    {
        "country_name": "Algeria",
        "name": "Annaba",
        "code": "23",
        "latitude": "36.80205080",
        "longitude": "7.52472430"
    },
    {
        "country_name": "Algeria",
        "name": "Batna",
        "code": "05",
        "latitude": "35.59659540",
        "longitude": "5.89871390"
    },
    {
        "country_name": "Algeria",
        "name": "B\u00e9char",
        "code": "08",
        "latitude": "31.62380980",
        "longitude": "-2.21624430"
    },
    {
        "country_name": "Algeria",
        "name": "B\u00e9ja\u00efa",
        "code": "06",
        "latitude": "36.75152580",
        "longitude": "5.05568370"
    },
    {
        "country_name": "Algeria",
        "name": "B\u00e9ni Abb\u00e8s",
        "code": "53",
        "latitude": "30.08310420",
        "longitude": "-2.83450520"
    },
    {
        "country_name": "Algeria",
        "name": "Biskra",
        "code": "07",
        "latitude": "34.84494370",
        "longitude": "5.72485670"
    },
    {
        "country_name": "Algeria",
        "name": "Blida",
        "code": "09",
        "latitude": "36.53112300",
        "longitude": "2.89762540"
    },
    {
        "country_name": "Algeria",
        "name": "Bordj Baji Mokhtar",
        "code": "52",
        "latitude": "22.96633500",
        "longitude": "-3.94727320"
    },
    {
        "country_name": "Algeria",
        "name": "Bordj Bou Arr\u00e9ridj",
        "code": "34",
        "latitude": "36.07399250",
        "longitude": "4.76302710"
    },
    {
        "country_name": "Algeria",
        "name": "Bou\u00efra",
        "code": "10",
        "latitude": "36.36918460",
        "longitude": "3.90061940"
    },
    {
        "country_name": "Algeria",
        "name": "Boumerd\u00e8s",
        "code": "35",
        "latitude": "36.68395590",
        "longitude": "3.62178020"
    },
    {
        "country_name": "Algeria",
        "name": "Chlef",
        "code": "02",
        "latitude": "36.16935150",
        "longitude": "1.28910360"
    },
    {
        "country_name": "Algeria",
        "name": "Constantine",
        "code": "25",
        "latitude": "36.33739110",
        "longitude": "6.66381200"
    },
    {
        "country_name": "Algeria",
        "name": "Djanet",
        "code": "56",
        "latitude": "23.83108720",
        "longitude": "8.70046720"
    },
    {
        "country_name": "Algeria",
        "name": "Djelfa",
        "code": "17",
        "latitude": "34.67039560",
        "longitude": "3.25037610"
    },
    {
        "country_name": "Algeria",
        "name": "El Bayadh",
        "code": "32",
        "latitude": "32.71488240",
        "longitude": "0.90566230"
    },
    {
        "country_name": "Algeria",
        "name": "El M'ghair",
        "code": "49",
        "latitude": "33.95405610",
        "longitude": "5.13464180"
    },
    {
        "country_name": "Algeria",
        "name": "El Menia",
        "code": "50",
        "latitude": "31.36422500",
        "longitude": "2.57844950"
    },
    {
        "country_name": "Algeria",
        "name": "El Oued",
        "code": "39",
        "latitude": "33.36781100",
        "longitude": "6.85165110"
    },
    {
        "country_name": "Algeria",
        "name": "El Tarf",
        "code": "36",
        "latitude": "36.75766780",
        "longitude": "8.30763430"
    },
    {
        "country_name": "Algeria",
        "name": "Gharda\u00efa",
        "code": "47",
        "latitude": "32.49437410",
        "longitude": "3.64446000"
    },
    {
        "country_name": "Algeria",
        "name": "Guelma",
        "code": "24",
        "latitude": "36.46274440",
        "longitude": "7.43308330"
    },
    {
        "country_name": "Algeria",
        "name": "Illizi",
        "code": "33",
        "latitude": "26.16900050",
        "longitude": "8.48424650"
    },
    {
        "country_name": "Algeria",
        "name": "In Guezzam",
        "code": "58",
        "latitude": "20.38643230",
        "longitude": "4.77893940"
    },
    {
        "country_name": "Algeria",
        "name": "In Salah",
        "code": "57",
        "latitude": "27.21492290",
        "longitude": "1.84843960"
    },
    {
        "country_name": "Algeria",
        "name": "Jijel",
        "code": "18",
        "latitude": "36.71796810",
        "longitude": "5.98325770"
    },
    {
        "country_name": "Algeria",
        "name": "Khenchela",
        "code": "40",
        "latitude": "35.42694040",
        "longitude": "7.14601550"
    },
    {
        "country_name": "Algeria",
        "name": "Laghouat",
        "code": "03",
        "latitude": "33.80783410",
        "longitude": "2.86282940"
    },
    {
        "country_name": "Algeria",
        "name": "M'Sila",
        "code": "28",
        "latitude": "35.71866460",
        "longitude": "4.52334230"
    },
    {
        "country_name": "Algeria",
        "name": "Mascara",
        "code": "29",
        "latitude": "35.39041250",
        "longitude": "0.14949880"
    },
    {
        "country_name": "Algeria",
        "name": "M\u00e9d\u00e9a",
        "code": "26",
        "latitude": "36.26370780",
        "longitude": "2.75878570"
    },
    {
        "country_name": "Algeria",
        "name": "Mila",
        "code": "43",
        "latitude": "36.36479570",
        "longitude": "6.15269850"
    },
    {
        "country_name": "Algeria",
        "name": "Mostaganem",
        "code": "27",
        "latitude": "35.95830540",
        "longitude": "0.33718890"
    },
    {
        "country_name": "Algeria",
        "name": "Naama",
        "code": "45",
        "latitude": "33.26673170",
        "longitude": "-0.31286590"
    },
    {
        "country_name": "Algeria",
        "name": "Oran",
        "code": "31",
        "latitude": "35.60823510",
        "longitude": "-0.56360900"
    },
    {
        "country_name": "Algeria",
        "name": "Ouargla",
        "code": "30",
        "latitude": "32.22648630",
        "longitude": "5.72998210"
    },
    {
        "country_name": "Algeria",
        "name": "Ouled Djellal",
        "code": "51",
        "latitude": "34.41782210",
        "longitude": "4.96858430"
    },
    {
        "country_name": "Algeria",
        "name": "Oum El Bouaghi",
        "code": "04",
        "latitude": "35.86887890",
        "longitude": "7.11082660"
    },
    {
        "country_name": "Algeria",
        "name": "Relizane",
        "code": "48",
        "latitude": "35.73834050",
        "longitude": "0.75328090"
    },
    {
        "country_name": "Algeria",
        "name": "Sa\u00efda",
        "code": "20",
        "latitude": "34.84152070",
        "longitude": "0.14560550"
    },
    {
        "country_name": "Algeria",
        "name": "S\u00e9tif",
        "code": "19",
        "latitude": "36.30733890",
        "longitude": "5.56172790"
    },
    {
        "country_name": "Algeria",
        "name": "Sidi Bel Abb\u00e8s",
        "code": "22",
        "latitude": "34.68060240",
        "longitude": "-1.09994950"
    },
    {
        "country_name": "Algeria",
        "name": "Skikda",
        "code": "21",
        "latitude": "36.67211980",
        "longitude": "6.83509990"
    },
    {
        "country_name": "Algeria",
        "name": "Souk Ahras",
        "code": "41",
        "latitude": "36.28010620",
        "longitude": "7.93840330"
    },
    {
        "country_name": "Algeria",
        "name": "Tamanghasset",
        "code": "11",
        "latitude": "22.79029720",
        "longitude": "5.51932680"
    },
    {
        "country_name": "Algeria",
        "name": "T\u00e9bessa",
        "code": "12",
        "latitude": "35.12906910",
        "longitude": "7.95928630"
    },
    {
        "country_name": "Algeria",
        "name": "Tiaret",
        "code": "14",
        "latitude": "35.37086890",
        "longitude": "1.32178520"
    },
    {
        "country_name": "Algeria",
        "name": "Timimoun",
        "code": "54",
        "latitude": "29.67890600",
        "longitude": "0.50046080"
    },
    {
        "country_name": "Algeria",
        "name": "Tindouf",
        "code": "37",
        "latitude": "27.80631190",
        "longitude": "-5.72998210"
    },
    {
        "country_name": "Algeria",
        "name": "Tipasa",
        "code": "42",
        "latitude": "36.54626500",
        "longitude": "2.18432850"
    },
    {
        "country_name": "Algeria",
        "name": "Tissemsilt",
        "code": "38",
        "latitude": "35.60537810",
        "longitude": "1.81309800"
    },
    {
        "country_name": "Algeria",
        "name": "Tizi Ouzou",
        "code": "15",
        "latitude": "36.70691100",
        "longitude": "4.23333550"
    },
    {
        "country_name": "Algeria",
        "name": "Tlemcen",
        "code": "13",
        "latitude": "34.67802840",
        "longitude": "-1.36621600"
    },
    {
        "country_name": "Algeria",
        "name": "Touggourt",
        "code": "55",
        "latitude": "33.12484760",
        "longitude": "5.78327150"
    },
    {
        "country_name": "Andorra",
        "name": "Andorra la Vella",
        "code": "07",
        "latitude": "42.50631740",
        "longitude": "1.52183550"
    },
    {
        "country_name": "Andorra",
        "name": "Canillo",
        "code": "02",
        "latitude": "42.59782490",
        "longitude": "1.65663770"
    },
    {
        "country_name": "Andorra",
        "name": "Encamp",
        "code": "03",
        "latitude": "42.53597640",
        "longitude": "1.58367730"
    },
    {
        "country_name": "Andorra",
        "name": "Escaldes-Engordany",
        "code": "08",
        "latitude": "42.49093790",
        "longitude": "1.58869660"
    },
    {
        "country_name": "Andorra",
        "name": "La Massana",
        "code": "04",
        "latitude": "42.54562500",
        "longitude": "1.51473920"
    },
    {
        "country_name": "Andorra",
        "name": "Ordino",
        "code": "05",
        "latitude": "42.59944330",
        "longitude": "1.54023270"
    },
    {
        "country_name": "Andorra",
        "name": "Sant Juli\u00e0 de L\u00f2ria",
        "code": "06",
        "latitude": "42.45296310",
        "longitude": "1.49182350"
    },
    {
        "country_name": "Angola",
        "name": "Bengo Province",
        "code": "BGO",
        "latitude": "-9.10422570",
        "longitude": "13.72891670"
    },
    {
        "country_name": "Angola",
        "name": "Benguela Province",
        "code": "BGU",
        "latitude": "-12.80037440",
        "longitude": "13.91439900"
    },
    {
        "country_name": "Angola",
        "name": "Bi\u00e9 Province",
        "code": "BIE",
        "latitude": "-12.57279070",
        "longitude": "17.66888700"
    },
    {
        "country_name": "Angola",
        "name": "Cabinda Province",
        "code": "CAB",
        "latitude": "-5.02487490",
        "longitude": "12.34638750"
    },
    {
        "country_name": "Angola",
        "name": "Cuando Cubango Province",
        "code": "CCU",
        "latitude": "-16.41808240",
        "longitude": "18.80761950"
    },
    {
        "country_name": "Angola",
        "name": "Cuanza Norte Province",
        "code": "CNO",
        "latitude": "-9.23985130",
        "longitude": "14.65878210"
    },
    {
        "country_name": "Angola",
        "name": "Cuanza Sul",
        "code": "CUS",
        "latitude": "-10.59519100",
        "longitude": "15.40680790"
    },
    {
        "country_name": "Angola",
        "name": "Cunene Province",
        "code": "CNN",
        "latitude": "-16.28022210",
        "longitude": "16.15809370"
    },
    {
        "country_name": "Angola",
        "name": "Huambo Province",
        "code": "HUA",
        "latitude": "-12.52682210",
        "longitude": "15.59433880"
    },
    {
        "country_name": "Angola",
        "name": "Hu\u00edla Province",
        "code": "HUI",
        "latitude": "-14.92805530",
        "longitude": "14.65878210"
    },
    {
        "country_name": "Angola",
        "name": "Luanda Province",
        "code": "LUA",
        "latitude": "-9.03508800",
        "longitude": "13.26634790"
    },
    {
        "country_name": "Angola",
        "name": "Lunda Norte Province",
        "code": "LNO",
        "latitude": "-8.35250220",
        "longitude": "19.18800470"
    },
    {
        "country_name": "Angola",
        "name": "Lunda Sul Province",
        "code": "LSU",
        "latitude": "-10.28665780",
        "longitude": "20.71224650"
    },
    {
        "country_name": "Angola",
        "name": "Malanje Province",
        "code": "MAL",
        "latitude": "-9.82511830",
        "longitude": "16.91225100"
    },
    {
        "country_name": "Angola",
        "name": "Moxico Province",
        "code": "MOX",
        "latitude": "-13.42935790",
        "longitude": "20.33088140"
    },
    {
        "country_name": "Angola",
        "name": "U\u00edge Province",
        "code": "UIG",
        "latitude": "-7.17367320",
        "longitude": "15.40680790"
    },
    {
        "country_name": "Angola",
        "name": "Zaire Province",
        "code": "ZAI",
        "latitude": "-6.57334580",
        "longitude": "13.17403480"
    },
    {
        "country_name": "Antigua And Barbuda",
        "name": "Barbuda",
        "code": "10",
        "latitude": "17.62662420",
        "longitude": "-61.77130280"
    },
    {
        "country_name": "Antigua And Barbuda",
        "name": "Redonda",
        "code": "11",
        "latitude": "16.93841600",
        "longitude": "-62.34551480"
    },
    {
        "country_name": "Antigua And Barbuda",
        "name": "Saint George Parish",
        "code": "03",
        "latitude": null,
        "longitude": null
    },
    {
        "country_name": "Antigua And Barbuda",
        "name": "Saint John Parish",
        "code": "04",
        "latitude": null,
        "longitude": null
    },
    {
        "country_name": "Antigua And Barbuda",
        "name": "Saint Mary Parish",
        "code": "05",
        "latitude": null,
        "longitude": null
    },
    {
        "country_name": "Antigua And Barbuda",
        "name": "Saint Paul Parish",
        "code": "06",
        "latitude": null,
        "longitude": null
    },
    {
        "country_name": "Antigua And Barbuda",
        "name": "Saint Peter Parish",
        "code": "07",
        "latitude": null,
        "longitude": null
    },
    {
        "country_name": "Antigua And Barbuda",
        "name": "Saint Philip Parish",
        "code": "08",
        "latitude": "40.43682580",
        "longitude": "-80.06855320"
    },
    {
        "country_name": "Argentina",
        "name": "Buenos Aires",
        "code": "B",
        "latitude": "-37.20172850",
        "longitude": "-59.84106970"
    },
    {
        "country_name": "Argentina",
        "name": "Catamarca",
        "code": "K",
        "latitude": "-28.47158770",
        "longitude": "-65.78772090"
    },
    {
        "country_name": "Argentina",
        "name": "Chaco",
        "code": "H",
        "latitude": "-27.42571750",
        "longitude": "-59.02437840"
    },
    {
        "country_name": "Argentina",
        "name": "Chubut",
        "code": "U",
        "latitude": "-43.29342460",
        "longitude": "-65.11148180"
    },
    {
        "country_name": "Argentina",
        "name": "Ciudad Aut\u00f3noma de Buenos Aires",
        "code": "C",
        "latitude": "-34.60368440",
        "longitude": "-58.38155910"
    },
    {
        "country_name": "Argentina",
        "name": "C\u00f3rdoba",
        "code": "X",
        "latitude": "-31.39928760",
        "longitude": "-64.26438420"
    },
    {
        "country_name": "Argentina",
        "name": "Corrientes",
        "code": "W",
        "latitude": "-27.46921310",
        "longitude": "-58.83063490"
    },
    {
        "country_name": "Argentina",
        "name": "Entre R\u00edos",
        "code": "E",
        "latitude": "-31.77466540",
        "longitude": "-60.49564610"
    },
    {
        "country_name": "Argentina",
        "name": "Formosa",
        "code": "P",
        "latitude": "-26.18948040",
        "longitude": "-58.22428060"
    },
    {
        "country_name": "Argentina",
        "name": "Jujuy",
        "code": "Y",
        "latitude": "-24.18433970",
        "longitude": "-65.30217700"
    },
    {
        "country_name": "Argentina",
        "name": "La Pampa",
        "code": "L",
        "latitude": "-36.61475730",
        "longitude": "-64.28392090"
    },
    {
        "country_name": "Argentina",
        "name": "La Rioja",
        "code": "F",
        "latitude": "-29.41937930",
        "longitude": "-66.85599320"
    },
    {
        "country_name": "Argentina",
        "name": "Mendoza",
        "code": "M",
        "latitude": "-32.88945870",
        "longitude": "-68.84583860"
    },
    {
        "country_name": "Argentina",
        "name": "Misiones",
        "code": "N",
        "latitude": "-27.42692550",
        "longitude": "-55.94670760"
    },
    {
        "country_name": "Argentina",
        "name": "Neuqu\u00e9n",
        "code": "Q",
        "latitude": "-38.94587000",
        "longitude": "-68.07309250"
    },
    {
        "country_name": "Argentina",
        "name": "R\u00edo Negro",
        "code": "R",
        "latitude": "-40.82614340",
        "longitude": "-63.02663390"
    },
    {
        "country_name": "Argentina",
        "name": "Salta",
        "code": "A",
        "latitude": "-24.79976880",
        "longitude": "-65.41503670"
    },
    {
        "country_name": "Argentina",
        "name": "San Juan",
        "code": "J",
        "latitude": "-31.53169760",
        "longitude": "-68.56769620"
    },
    {
        "country_name": "Argentina",
        "name": "San Luis",
        "code": "D",
        "latitude": "-33.29620420",
        "longitude": "-66.32949480"
    },
    {
        "country_name": "Argentina",
        "name": "Santa Cruz",
        "code": "Z",
        "latitude": "-51.63528210",
        "longitude": "-69.24743530"
    },
    {
        "country_name": "Argentina",
        "name": "Santa Fe",
        "code": "S",
        "latitude": "-31.58551090",
        "longitude": "-60.72380160"
    },
    {
        "country_name": "Argentina",
        "name": "Santiago del Estero",
        "code": "G",
        "latitude": "-27.78335740",
        "longitude": "-64.26416700"
    },
    {
        "country_name": "Argentina",
        "name": "Tierra del Fuego",
        "code": "V",
        "latitude": "-54.80539980",
        "longitude": "-68.32420610"
    },
    {
        "country_name": "Argentina",
        "name": "Tucum\u00e1n",
        "code": "T",
        "latitude": "-26.82211270",
        "longitude": "-65.21929030"
    },
    {
        "country_name": "Armenia",
        "name": "Aragatsotn Region",
        "code": "AG",
        "latitude": "40.33473010",
        "longitude": "44.37482960"
    },
    {
        "country_name": "Armenia",
        "name": "Ararat Province",
        "code": "AR",
        "latitude": "39.91394150",
        "longitude": "44.72000040"
    },
    {
        "country_name": "Armenia",
        "name": "Armavir Region",
        "code": "AV",
        "latitude": "40.15546310",
        "longitude": "44.03724460"
    },
    {
        "country_name": "Armenia",
        "name": "Gegharkunik Province",
        "code": "GR",
        "latitude": "40.35264260",
        "longitude": "45.12604140"
    },
    {
        "country_name": "Armenia",
        "name": "Kotayk Region",
        "code": "KT",
        "latitude": "40.54102140",
        "longitude": "44.76901480"
    },
    {
        "country_name": "Armenia",
        "name": "Lori Region",
        "code": "LO",
        "latitude": "40.96984520",
        "longitude": "44.49001380"
    },
    {
        "country_name": "Armenia",
        "name": "Shirak Region",
        "code": "SH",
        "latitude": "40.96308140",
        "longitude": "43.81024610"
    },
    {
        "country_name": "Armenia",
        "name": "Syunik Province",
        "code": "SU",
        "latitude": "39.51331120",
        "longitude": "46.33932340"
    },
    {
        "country_name": "Armenia",
        "name": "Tavush Region",
        "code": "TV",
        "latitude": "40.88662960",
        "longitude": "45.33934900"
    },
    {
        "country_name": "Armenia",
        "name": "Vayots Dzor Region",
        "code": "VD",
        "latitude": "39.76419960",
        "longitude": "45.33375280"
    },
    {
        "country_name": "Armenia",
        "name": "Yerevan",
        "code": "ER",
        "latitude": "40.18720230",
        "longitude": "44.51520900"
    },
    {
        "country_name": "Australia",
        "name": "Australian Capital Territory",
        "code": "ACT",
        "latitude": "-35.47346790",
        "longitude": "149.01236790"
    },
    {
        "country_name": "Australia",
        "name": "New South Wales",
        "code": "NSW",
        "latitude": "-31.25321830",
        "longitude": "146.92109900"
    },
    {
        "country_name": "Australia",
        "name": "Northern Territory",
        "code": "NT",
        "latitude": "-19.49141080",
        "longitude": "132.55096030"
    },
    {
        "country_name": "Australia",
        "name": "Queensland",
        "code": "QLD",
        "latitude": "-20.91757380",
        "longitude": "142.70279560"
    },
    {
        "country_name": "Australia",
        "name": "South Australia",
        "code": "SA",
        "latitude": "-30.00023150",
        "longitude": "136.20915470"
    },
    {
        "country_name": "Australia",
        "name": "Tasmania",
        "code": "TAS",
        "latitude": "-41.45451960",
        "longitude": "145.97066470"
    },
    {
        "country_name": "Australia",
        "name": "Victoria",
        "code": "VIC",
        "latitude": "-36.48564230",
        "longitude": "140.97794250"
    },
    {
        "country_name": "Australia",
        "name": "Western Australia",
        "code": "WA",
        "latitude": "-27.67281680",
        "longitude": "121.62830980"
    },
    {
        "country_name": "Austria",
        "name": "Burgenland",
        "code": "1",
        "latitude": "47.15371650",
        "longitude": "16.26887970"
    },
    {
        "country_name": "Austria",
        "name": "Carinthia",
        "code": "2",
        "latitude": "46.72220300",
        "longitude": "14.18058820"
    },
    {
        "country_name": "Austria",
        "name": "Lower Austria",
        "code": "3",
        "latitude": "48.10807700",
        "longitude": "15.80495580"
    },
    {
        "country_name": "Austria",
        "name": "Salzburg",
        "code": "5",
        "latitude": "47.80949000",
        "longitude": "13.05501000"
    },
    {
        "country_name": "Austria",
        "name": "Styria",
        "code": "6",
        "latitude": "47.35934420",
        "longitude": "14.46998270"
    },
    {
        "country_name": "Austria",
        "name": "Tyrol",
        "code": "7",
        "latitude": "47.25374140",
        "longitude": "11.60148700"
    },
    {
        "country_name": "Austria",
        "name": "Upper Austria",
        "code": "4",
        "latitude": "48.02585400",
        "longitude": "13.97236650"
    },
    {
        "country_name": "Austria",
        "name": "Vienna",
        "code": "9",
        "latitude": "48.20817430",
        "longitude": "16.37381890"
    },
    {
        "country_name": "Austria",
        "name": "Vorarlberg",
        "code": "8",
        "latitude": "47.24974270",
        "longitude": "9.97973730"
    },
    {
        "country_name": "Azerbaijan",
        "name": "Absheron District",
        "code": "ABS",
        "latitude": "40.36296930",
        "longitude": "49.27368150"
    },
    {
        "country_name": "Azerbaijan",
        "name": "Agdam District",
        "code": "AGM",
        "latitude": "39.99318530",
        "longitude": "46.99495620"
    },
    {
        "country_name": "Azerbaijan",
        "name": "Agdash District",
        "code": "AGS",
        "latitude": "40.63354270",
        "longitude": "47.46743100"
    },
    {
        "country_name": "Azerbaijan",
        "name": "Aghjabadi District",
        "code": "AGC",
        "latitude": "28.78918410",
        "longitude": "77.51607880"
    },
    {
        "country_name": "Azerbaijan",
        "name": "Agstafa District",
        "code": "AGA",
        "latitude": "41.26559330",
        "longitude": "45.51342910"
    },
    {
        "country_name": "Azerbaijan",
        "name": "Agsu District",
        "code": "AGU",
        "latitude": "40.52833390",
        "longitude": "48.36508350"
    },
    {
        "country_name": "Azerbaijan",
        "name": "Astara District",
        "code": "AST",
        "latitude": "38.49378450",
        "longitude": "48.69443650"
    },
    {
        "country_name": "Azerbaijan",
        "name": "Babek District",
        "code": "BAB",
        "latitude": "39.15076130",
        "longitude": "45.44853680"
    },
    {
        "country_name": "Azerbaijan",
        "name": "Baku",
        "code": "BA",
        "latitude": "40.40926170",
        "longitude": "49.86709240"
    },
    {
        "country_name": "Azerbaijan",
        "name": "Balakan District",
        "code": "BAL",
        "latitude": "41.70375090",
        "longitude": "46.40442130"
    },
    {
        "country_name": "Azerbaijan",
        "name": "Barda District",
        "code": "BAR",
        "latitude": "40.37065550",
        "longitude": "47.13789090"
    },
    {
        "country_name": "Azerbaijan",
        "name": "Beylagan District",
        "code": "BEY",
        "latitude": "39.77230730",
        "longitude": "47.61541660"
    },
    {
        "country_name": "Azerbaijan",
        "name": "Bilasuvar District",
        "code": "BIL",
        "latitude": "39.45988330",
        "longitude": "48.55098130"
    },
    {
        "country_name": "Azerbaijan",
        "name": "Dashkasan District",
        "code": "DAS",
        "latitude": "40.52022570",
        "longitude": "46.07793040"
    },
    {
        "country_name": "Azerbaijan",
        "name": "Fizuli District",
        "code": "FUZ",
        "latitude": "39.53786050",
        "longitude": "47.30338770"
    },
    {
        "country_name": "Azerbaijan",
        "name": "Ganja",
        "code": "GA",
        "latitude": "36.36873380",
        "longitude": "-95.99857670"
    },
    {
        "country_name": "Azerbaijan",
        "name": "G\u0259d\u0259b\u0259y",
        "code": "GAD",
        "latitude": "40.56996390",
        "longitude": "45.81068830"
    },
    {
        "country_name": "Azerbaijan",
        "name": "Gobustan District",
        "code": "QOB",
        "latitude": "40.53261040",
        "longitude": "48.92737500"
    },
    {
        "country_name": "Azerbaijan",
        "name": "Goranboy District",
        "code": "GOR",
        "latitude": "40.53805060",
        "longitude": "46.59908910"
    },
    {
        "country_name": "Azerbaijan",
        "name": "Goychay",
        "code": "GOY",
        "latitude": "40.62361680",
        "longitude": "47.74030340"
    },
    {
        "country_name": "Azerbaijan",
        "name": "Goygol District",
        "code": "GYG",
        "latitude": "40.55953780",
        "longitude": "46.33149530"
    },
    {
        "country_name": "Azerbaijan",
        "name": "Hajigabul District",
        "code": "HAC",
        "latitude": "40.03937700",
        "longitude": "48.92025330"
    },
    {
        "country_name": "Azerbaijan",
        "name": "Imishli District",
        "code": "IMI",
        "latitude": "39.86946860",
        "longitude": "48.06652180"
    },
    {
        "country_name": "Azerbaijan",
        "name": "Ismailli District",
        "code": "ISM",
        "latitude": "40.74299360",
        "longitude": "48.21255560"
    },
    {
        "country_name": "Azerbaijan",
        "name": "Jabrayil District",
        "code": "CAB",
        "latitude": "39.26455440",
        "longitude": "46.96215620"
    },
    {
        "country_name": "Azerbaijan",
        "name": "Jalilabad District",
        "code": "CAL",
        "latitude": "39.20516320",
        "longitude": "48.51006040"
    },
    {
        "country_name": "Azerbaijan",
        "name": "Julfa District",
        "code": "CUL",
        "latitude": "38.96049830",
        "longitude": "45.62929390"
    },
    {
        "country_name": "Azerbaijan",
        "name": "Kalbajar District",
        "code": "KAL",
        "latitude": "40.10243290",
        "longitude": "46.03648720"
    },
    {
        "country_name": "Azerbaijan",
        "name": "Kangarli District",
        "code": "KAN",
        "latitude": "39.38719400",
        "longitude": "45.16398520"
    },
    {
        "country_name": "Azerbaijan",
        "name": "Khachmaz District",
        "code": "XAC",
        "latitude": "41.45911680",
        "longitude": "48.80206260"
    },
    {
        "country_name": "Azerbaijan",
        "name": "Khizi District",
        "code": "XIZ",
        "latitude": "40.91094890",
        "longitude": "49.07292640"
    },
    {
        "country_name": "Azerbaijan",
        "name": "Khojali District",
        "code": "XCI",
        "latitude": "39.91325530",
        "longitude": "46.79430500"
    },
    {
        "country_name": "Azerbaijan",
        "name": "Kurdamir District",
        "code": "KUR",
        "latitude": "40.36986510",
        "longitude": "48.16446260"
    },
    {
        "country_name": "Azerbaijan",
        "name": "Lachin District",
        "code": "LAC",
        "latitude": "39.63834140",
        "longitude": "46.54608530"
    },
    {
        "country_name": "Azerbaijan",
        "name": "Lankaran",
        "code": "LAN",
        "latitude": "38.75286690",
        "longitude": "48.84750150"
    },
    {
        "country_name": "Azerbaijan",
        "name": "Lankaran District",
        "code": "LA",
        "latitude": "38.75286690",
        "longitude": "48.84750150"
    },
    {
        "country_name": "Azerbaijan",
        "name": "Lerik District",
        "code": "LER",
        "latitude": "38.77361920",
        "longitude": "48.41514830"
    },
    {
        "country_name": "Azerbaijan",
        "name": "Martuni",
        "code": "XVD",
        "latitude": "39.79146930",
        "longitude": "47.11008140"
    },
    {
        "country_name": "Azerbaijan",
        "name": "Masally District",
        "code": "MAS",
        "latitude": "39.03407220",
        "longitude": "48.65893540"
    },
    {
        "country_name": "Azerbaijan",
        "name": "Mingachevir",
        "code": "MI",
        "latitude": "40.77025630",
        "longitude": "47.04960150"
    },
    {
        "country_name": "Azerbaijan",
        "name": "Nakhchivan Autonomous Republic",
        "code": "NX",
        "latitude": "39.32568140",
        "longitude": "45.49126480"
    },
    {
        "country_name": "Azerbaijan",
        "name": "Neftchala District",
        "code": "NEF",
        "latitude": "39.38810520",
        "longitude": "49.24137430"
    },
    {
        "country_name": "Azerbaijan",
        "name": "Oghuz District",
        "code": "OGU",
        "latitude": "41.07279240",
        "longitude": "47.46506720"
    },
    {
        "country_name": "Azerbaijan",
        "name": "Ordubad District",
        "code": "ORD",
        "latitude": "38.90216220",
        "longitude": "46.02376250"
    },
    {
        "country_name": "Azerbaijan",
        "name": "Qabala District",
        "code": "QAB",
        "latitude": "40.92539250",
        "longitude": "47.80161060"
    },
    {
        "country_name": "Azerbaijan",
        "name": "Qakh District",
        "code": "QAX",
        "latitude": "41.42068270",
        "longitude": "46.93201840"
    },
    {
        "country_name": "Azerbaijan",
        "name": "Qazakh District",
        "code": "QAZ",
        "latitude": "41.09710740",
        "longitude": "45.35163310"
    },
    {
        "country_name": "Azerbaijan",
        "name": "Quba District",
        "code": "QBA",
        "latitude": "41.15642420",
        "longitude": "48.41350210"
    },
    {
        "country_name": "Azerbaijan",
        "name": "Qubadli District",
        "code": "QBI",
        "latitude": "39.27139960",
        "longitude": "46.63543120"
    },
    {
        "country_name": "Azerbaijan",
        "name": "Qusar District",
        "code": "QUS",
        "latitude": "41.42668860",
        "longitude": "48.43455770"
    },
    {
        "country_name": "Azerbaijan",
        "name": "Saatly District",
        "code": "SAT",
        "latitude": "39.90955030",
        "longitude": "48.35951220"
    },
    {
        "country_name": "Azerbaijan",
        "name": "Sabirabad District",
        "code": "SAB",
        "latitude": "39.98706630",
        "longitude": "48.46925450"
    },
    {
        "country_name": "Azerbaijan",
        "name": "Sadarak District",
        "code": "SAD",
        "latitude": "39.71051140",
        "longitude": "44.88642770"
    },
    {
        "country_name": "Azerbaijan",
        "name": "Salyan District",
        "code": "SAL",
        "latitude": "28.35248110",
        "longitude": "82.12784000"
    },
    {
        "country_name": "Azerbaijan",
        "name": "Samukh District",
        "code": "SMX",
        "latitude": "40.76046310",
        "longitude": "46.40631810"
    },
    {
        "country_name": "Azerbaijan",
        "name": "Shabran District",
        "code": "SBN",
        "latitude": "41.22283760",
        "longitude": "48.84573040"
    },
    {
        "country_name": "Azerbaijan",
        "name": "Shahbuz District",
        "code": "SAH",
        "latitude": "39.44521030",
        "longitude": "45.65680090"
    },
    {
        "country_name": "Azerbaijan",
        "name": "Shaki",
        "code": "SA",
        "latitude": "41.19747530",
        "longitude": "47.15712410"
    },
    {
        "country_name": "Azerbaijan",
        "name": "Shaki District",
        "code": "SAK",
        "latitude": "41.11346620",
        "longitude": "47.13169270"
    },
    {
        "country_name": "Azerbaijan",
        "name": "Shamakhi District",
        "code": "SMI",
        "latitude": "40.63187310",
        "longitude": "48.63638010"
    },
    {
        "country_name": "Azerbaijan",
        "name": "Shamkir District",
        "code": "SKR",
        "latitude": "40.82881440",
        "longitude": "46.01668790"
    },
    {
        "country_name": "Azerbaijan",
        "name": "Sharur District",
        "code": "SAR",
        "latitude": "39.55363320",
        "longitude": "44.98456800"
    },
    {
        "country_name": "Azerbaijan",
        "name": "Shirvan",
        "code": "SR",
        "latitude": "39.94697070",
        "longitude": "48.92239190"
    },
    {
        "country_name": "Azerbaijan",
        "name": "Shusha District",
        "code": "SUS",
        "latitude": "39.75374380",
        "longitude": "46.74647550"
    },
    {
        "country_name": "Azerbaijan",
        "name": "Siazan District",
        "code": "SIY",
        "latitude": "41.07838330",
        "longitude": "49.11184770"
    },
    {
        "country_name": "Azerbaijan",
        "name": "Sumqayit",
        "code": "SM",
        "latitude": "40.58547650",
        "longitude": "49.63174110"
    },
    {
        "country_name": "Azerbaijan",
        "name": "Tartar District",
        "code": "TAR",
        "latitude": "40.34438750",
        "longitude": "46.93765190"
    },
    {
        "country_name": "Azerbaijan",
        "name": "Tovuz District",
        "code": "TOV",
        "latitude": "40.99545230",
        "longitude": "45.61659070"
    },
    {
        "country_name": "Azerbaijan",
        "name": "Ujar District",
        "code": "UCA",
        "latitude": "40.50675250",
        "longitude": "47.64896410"
    },
    {
        "country_name": "Azerbaijan",
        "name": "Yardymli District",
        "code": "YAR",
        "latitude": "38.90589170",
        "longitude": "48.24961270"
    },
    {
        "country_name": "Azerbaijan",
        "name": "Yevlakh",
        "code": "YE",
        "latitude": "40.61966380",
        "longitude": "47.15003240"
    },
    {
        "country_name": "Azerbaijan",
        "name": "Yevlakh District",
        "code": "YEV",
        "latitude": "40.61966380",
        "longitude": "47.15003240"
    },
    {
        "country_name": "Azerbaijan",
        "name": "Zangilan District",
        "code": "ZAN",
        "latitude": "39.08568990",
        "longitude": "46.65247280"
    },
    {
        "country_name": "Azerbaijan",
        "name": "Zaqatala District",
        "code": "ZAQ",
        "latitude": "41.59068890",
        "longitude": "46.72403730"
    },
    {
        "country_name": "Azerbaijan",
        "name": "Zardab District",
        "code": "ZAR",
        "latitude": "40.21481140",
        "longitude": "47.71494400"
    },
    {
        "country_name": "Bahrain",
        "name": "Capital",
        "code": "13",
        "latitude": null,
        "longitude": null
    },
    {
        "country_name": "Bahrain",
        "name": "Central",
        "code": "16",
        "latitude": "26.14260930",
        "longitude": "50.56532940"
    },
    {
        "country_name": "Bahrain",
        "name": "Muharraq",
        "code": "15",
        "latitude": "26.26856530",
        "longitude": "50.64825170"
    },
    {
        "country_name": "Bahrain",
        "name": "Northern",
        "code": "17",
        "latitude": "26.15519140",
        "longitude": "50.48251730"
    },
    {
        "country_name": "Bahrain",
        "name": "Southern",
        "code": "14",
        "latitude": "25.93810180",
        "longitude": "50.57568870"
    },
    {
        "country_name": "Bangladesh",
        "name": "Bagerhat District",
        "code": "05",
        "latitude": "22.66024360",
        "longitude": "89.78954780"
    },
    {
        "country_name": "Bangladesh",
        "name": "Bahadia",
        "code": "33",
        "latitude": "23.78987120",
        "longitude": "90.16714830"
    },
    {
        "country_name": "Bangladesh",
        "name": "Bandarban District",
        "code": "01",
        "latitude": "21.83110020",
        "longitude": "92.36863210"
    },
    {
        "country_name": "Bangladesh",
        "name": "Barguna District",
        "code": "02",
        "latitude": "22.09529150",
        "longitude": "90.11206960"
    },
    {
        "country_name": "Bangladesh",
        "name": "Barisal District",
        "code": "06",
        "latitude": "22.70220980",
        "longitude": "90.36963160"
    },
    {
        "country_name": "Bangladesh",
        "name": "Barisal Division",
        "code": "A",
        "latitude": "22.38111310",
        "longitude": "90.33718890"
    },
    {
        "country_name": "Bangladesh",
        "name": "Bhola District",
        "code": "07",
        "latitude": "22.17853150",
        "longitude": "90.71010230"
    },
    {
        "country_name": "Bangladesh",
        "name": "Bogra District",
        "code": "03",
        "latitude": "24.85104020",
        "longitude": "89.36972250"
    },
    {
        "country_name": "Bangladesh",
        "name": "Brahmanbaria District",
        "code": "04",
        "latitude": "23.96081810",
        "longitude": "91.11150140"
    },
    {
        "country_name": "Bangladesh",
        "name": "Chandpur District",
        "code": "09",
        "latitude": "23.25131480",
        "longitude": "90.85178460"
    },
    {
        "country_name": "Bangladesh",
        "name": "Chapai Nawabganj District",
        "code": "45",
        "latitude": "24.74131110",
        "longitude": "88.29120690"
    },
    {
        "country_name": "Bangladesh",
        "name": "Chittagong District",
        "code": "10",
        "latitude": "22.51501050",
        "longitude": "91.75388170"
    },
    {
        "country_name": "Bangladesh",
        "name": "Chittagong Division",
        "code": "B",
        "latitude": "23.17931570",
        "longitude": "91.98815270"
    },
    {
        "country_name": "Bangladesh",
        "name": "Chuadanga District",
        "code": "12",
        "latitude": "23.61605120",
        "longitude": "88.82630060"
    },
    {
        "country_name": "Bangladesh",
        "name": "Comilla District",
        "code": "08",
        "latitude": "23.45756670",
        "longitude": "91.18089960"
    },
    {
        "country_name": "Bangladesh",
        "name": "Cox's Bazar District",
        "code": "11",
        "latitude": "21.56406260",
        "longitude": "92.02821290"
    },
    {
        "country_name": "Bangladesh",
        "name": "Dhaka District",
        "code": "13",
        "latitude": "23.81051400",
        "longitude": "90.33718890"
    },
    {
        "country_name": "Bangladesh",
        "name": "Dhaka Division",
        "code": "C",
        "latitude": "23.95357420",
        "longitude": "90.14949880"
    },
    {
        "country_name": "Bangladesh",
        "name": "Dinajpur District",
        "code": "14",
        "latitude": "25.62791230",
        "longitude": "88.63317580"
    },
    {
        "country_name": "Bangladesh",
        "name": "Faridpur District",
        "code": "15",
        "latitude": "23.54239190",
        "longitude": "89.63089210"
    },
    {
        "country_name": "Bangladesh",
        "name": "Feni District",
        "code": "16",
        "latitude": "22.94087840",
        "longitude": "91.40666460"
    },
    {
        "country_name": "Bangladesh",
        "name": "Gaibandha District",
        "code": "19",
        "latitude": "25.32969280",
        "longitude": "89.54296520"
    },
    {
        "country_name": "Bangladesh",
        "name": "Gazipur District",
        "code": "18",
        "latitude": "24.09581710",
        "longitude": "90.41251810"
    },
    {
        "country_name": "Bangladesh",
        "name": "Gopalganj District",
        "code": "17",
        "latitude": "26.48315840",
        "longitude": "84.43655000"
    },
    {
        "country_name": "Bangladesh",
        "name": "Habiganj District",
        "code": "20",
        "latitude": "24.47712360",
        "longitude": "91.45065650"
    },
    {
        "country_name": "Bangladesh",
        "name": "Jamalpur District",
        "code": "21",
        "latitude": "25.08309260",
        "longitude": "89.78532180"
    },
    {
        "country_name": "Bangladesh",
        "name": "Jessore District",
        "code": "22",
        "latitude": "23.16340140",
        "longitude": "89.21816640"
    },
    {
        "country_name": "Bangladesh",
        "name": "Jhalokati District",
        "code": "25",
        "latitude": "22.57208000",
        "longitude": "90.18696440"
    },
    {
        "country_name": "Bangladesh",
        "name": "Jhenaidah District",
        "code": "23",
        "latitude": "23.54498730",
        "longitude": "89.17260310"
    },
    {
        "country_name": "Bangladesh",
        "name": "Joypurhat District",
        "code": "24",
        "latitude": "25.09473490",
        "longitude": "89.09449370"
    },
    {
        "country_name": "Bangladesh",
        "name": "Khagrachari District",
        "code": "29",
        "latitude": "23.13217510",
        "longitude": "91.94902100"
    },
    {
        "country_name": "Bangladesh",
        "name": "Khulna District",
        "code": "27",
        "latitude": "22.67377350",
        "longitude": "89.39665810"
    },
    {
        "country_name": "Bangladesh",
        "name": "Khulna Division",
        "code": "D",
        "latitude": "22.80878160",
        "longitude": "89.24671910"
    },
    {
        "country_name": "Bangladesh",
        "name": "Kishoreganj District",
        "code": "26",
        "latitude": "24.42604570",
        "longitude": "90.98206680"
    },
    {
        "country_name": "Bangladesh",
        "name": "Kurigram District",
        "code": "28",
        "latitude": "25.80724140",
        "longitude": "89.62947460"
    },
    {
        "country_name": "Bangladesh",
        "name": "Kushtia District",
        "code": "30",
        "latitude": "23.89069950",
        "longitude": "89.10993680"
    },
    {
        "country_name": "Bangladesh",
        "name": "Lakshmipur District",
        "code": "31",
        "latitude": "22.94467440",
        "longitude": "90.82819070"
    },
    {
        "country_name": "Bangladesh",
        "name": "Lalmonirhat District",
        "code": "32",
        "latitude": "25.99233980",
        "longitude": "89.28472510"
    },
    {
        "country_name": "Bangladesh",
        "name": "Madaripur District",
        "code": "36",
        "latitude": "23.23933460",
        "longitude": "90.18696440"
    },
    {
        "country_name": "Bangladesh",
        "name": "Meherpur District",
        "code": "39",
        "latitude": "23.80519910",
        "longitude": "88.67235780"
    },
    {
        "country_name": "Bangladesh",
        "name": "Moulvibazar District",
        "code": "38",
        "latitude": "24.30953440",
        "longitude": "91.73149030"
    },
    {
        "country_name": "Bangladesh",
        "name": "Munshiganj District",
        "code": "35",
        "latitude": "23.49809310",
        "longitude": "90.41266210"
    },
    {
        "country_name": "Bangladesh",
        "name": "Mymensingh District",
        "code": "34",
        "latitude": "24.75385750",
        "longitude": "90.40729190"
    },
    {
        "country_name": "Bangladesh",
        "name": "Mymensingh Division",
        "code": "H",
        "latitude": "24.71362000",
        "longitude": "90.45023680"
    },
    {
        "country_name": "Bangladesh",
        "name": "Naogaon District",
        "code": "48",
        "latitude": "24.91315970",
        "longitude": "88.75309520"
    },
    {
        "country_name": "Bangladesh",
        "name": "Narail District",
        "code": "43",
        "latitude": "23.11629290",
        "longitude": "89.58404040"
    },
    {
        "country_name": "Bangladesh",
        "name": "Narayanganj District",
        "code": "40",
        "latitude": "23.71466010",
        "longitude": "90.56360900"
    },
    {
        "country_name": "Bangladesh",
        "name": "Natore District",
        "code": "44",
        "latitude": "24.41024300",
        "longitude": "89.00761770"
    },
    {
        "country_name": "Bangladesh",
        "name": "Netrokona District",
        "code": "41",
        "latitude": "24.81032840",
        "longitude": "90.86564150"
    },
    {
        "country_name": "Bangladesh",
        "name": "Nilphamari District",
        "code": "46",
        "latitude": "25.84827980",
        "longitude": "88.94141340"
    },
    {
        "country_name": "Bangladesh",
        "name": "Noakhali District",
        "code": "47",
        "latitude": "22.87237890",
        "longitude": "91.09731840"
    },
    {
        "country_name": "Bangladesh",
        "name": "Pabna District",
        "code": "49",
        "latitude": "24.15850500",
        "longitude": "89.44807180"
    },
    {
        "country_name": "Bangladesh",
        "name": "Panchagarh District",
        "code": "52",
        "latitude": "26.27087050",
        "longitude": "88.59517510"
    },
    {
        "country_name": "Bangladesh",
        "name": "Patuakhali District",
        "code": "51",
        "latitude": "22.22486320",
        "longitude": "90.45475030"
    },
    {
        "country_name": "Bangladesh",
        "name": "Pirojpur District",
        "code": "50",
        "latitude": "22.57907440",
        "longitude": "89.97592640"
    },
    {
        "country_name": "Bangladesh",
        "name": "Rajbari District",
        "code": "53",
        "latitude": "23.71513400",
        "longitude": "89.58748190"
    },
    {
        "country_name": "Bangladesh",
        "name": "Rajshahi District",
        "code": "54",
        "latitude": "24.37330870",
        "longitude": "88.60487160"
    },
    {
        "country_name": "Bangladesh",
        "name": "Rajshahi Division",
        "code": "E",
        "latitude": "24.71057760",
        "longitude": "88.94138650"
    },
    {
        "country_name": "Bangladesh",
        "name": "Rangamati Hill District",
        "code": "56",
        "latitude": "22.73241730",
        "longitude": "92.29851340"
    },
    {
        "country_name": "Bangladesh",
        "name": "Rangpur District",
        "code": "55",
        "latitude": "25.74679250",
        "longitude": "89.25083350"
    },
    {
        "country_name": "Bangladesh",
        "name": "Rangpur Division",
        "code": "F",
        "latitude": "25.84833880",
        "longitude": "88.94138650"
    },
    {
        "country_name": "Bangladesh",
        "name": "Satkhira District",
        "code": "58",
        "latitude": "22.31548120",
        "longitude": "89.11145250"
    },
    {
        "country_name": "Bangladesh",
        "name": "Shariatpur District",
        "code": "62",
        "latitude": "23.24232140",
        "longitude": "90.43477110"
    },
    {
        "country_name": "Bangladesh",
        "name": "Sherpur District",
        "code": "57",
        "latitude": "25.07462350",
        "longitude": "90.14949040"
    },
    {
        "country_name": "Bangladesh",
        "name": "Sirajganj District",
        "code": "59",
        "latitude": "24.31411150",
        "longitude": "89.56996150"
    },
    {
        "country_name": "Bangladesh",
        "name": "Sunamganj District",
        "code": "61",
        "latitude": "25.07145350",
        "longitude": "91.39916270"
    },
    {
        "country_name": "Bangladesh",
        "name": "Sylhet District",
        "code": "60",
        "latitude": "24.89933570",
        "longitude": "91.87004730"
    },
    {
        "country_name": "Bangladesh",
        "name": "Sylhet Division",
        "code": "G",
        "latitude": "24.70498110",
        "longitude": "91.67606910"
    },
    {
        "country_name": "Bangladesh",
        "name": "Tangail District",
        "code": "63",
        "latitude": "24.39174270",
        "longitude": "89.99482570"
    },
    {
        "country_name": "Bangladesh",
        "name": "Thakurgaon District",
        "code": "64",
        "latitude": "26.04183920",
        "longitude": "88.42826160"
    },
    {
        "country_name": "Barbados",
        "name": "Christ Church",
        "code": "01",
        "latitude": "36.00604070",
        "longitude": "-95.92112100"
    },
    {
        "country_name": "Barbados",
        "name": "Saint Andrew",
        "code": "02",
        "latitude": null,
        "longitude": null
    },
    {
        "country_name": "Barbados",
        "name": "Saint George",
        "code": "03",
        "latitude": "37.09652780",
        "longitude": "-113.56841640"
    },
    {
        "country_name": "Barbados",
        "name": "Saint James",
        "code": "04",
        "latitude": "48.52356600",
        "longitude": "-1.32378850"
    },
    {
        "country_name": "Barbados",
        "name": "Saint John",
        "code": "05",
        "latitude": "45.27331530",
        "longitude": "-66.06330800"
    },
    {
        "country_name": "Barbados",
        "name": "Saint Joseph",
        "code": "06",
        "latitude": "39.76745780",
        "longitude": "-94.84668100"
    },
    {
        "country_name": "Barbados",
        "name": "Saint Lucy",
        "code": "07",
        "latitude": "38.76146250",
        "longitude": "-77.44914390"
    },
    {
        "country_name": "Barbados",
        "name": "Saint Michael",
        "code": "08",
        "latitude": "36.03597700",
        "longitude": "-95.84905200"
    },
    {
        "country_name": "Barbados",
        "name": "Saint Peter",
        "code": "09",
        "latitude": "37.08271190",
        "longitude": "-94.51712500"
    },
    {
        "country_name": "Barbados",
        "name": "Saint Philip",
        "code": "10",
        "latitude": "35.23311400",
        "longitude": "-89.43640420"
    },
    {
        "country_name": "Barbados",
        "name": "Saint Thomas",
        "code": "11",
        "latitude": "18.33809650",
        "longitude": "-64.89409460"
    },
    {
        "country_name": "Belarus",
        "name": "Brest Region",
        "code": "BR",
        "latitude": "52.52966410",
        "longitude": "25.46064800"
    },
    {
        "country_name": "Belarus",
        "name": "Gomel Region",
        "code": "HO",
        "latitude": "52.16487540",
        "longitude": "29.13332510"
    },
    {
        "country_name": "Belarus",
        "name": "Grodno Region",
        "code": "HR",
        "latitude": "53.65999450",
        "longitude": "25.34485710"
    },
    {
        "country_name": "Belarus",
        "name": "Minsk",
        "code": "HM",
        "latitude": "53.90060110",
        "longitude": "27.55897200"
    },
    {
        "country_name": "Belarus",
        "name": "Minsk Region",
        "code": "MI",
        "latitude": "54.10678890",
        "longitude": "27.41292450"
    },
    {
        "country_name": "Belarus",
        "name": "Mogilev Region",
        "code": "MA",
        "latitude": "53.51017910",
        "longitude": "30.40064440"
    },
    {
        "country_name": "Belarus",
        "name": "Vitebsk Region",
        "code": "VI",
        "latitude": "55.29598330",
        "longitude": "28.75836270"
    },
    {
        "country_name": "Belgium",
        "name": "Antwerp",
        "code": "VAN",
        "latitude": "51.21944750",
        "longitude": "4.40246430"
    },
    {
        "country_name": "Belgium",
        "name": "Brussels-Capital Region",
        "code": "BRU",
        "latitude": "50.85034630",
        "longitude": "4.35172110"
    },
    {
        "country_name": "Belgium",
        "name": "East Flanders",
        "code": "VOV",
        "latitude": "51.03621010",
        "longitude": "3.73731240"
    },
    {
        "country_name": "Belgium",
        "name": "Flanders",
        "code": "VLG",
        "latitude": "51.01087060",
        "longitude": "3.72646130"
    },
    {
        "country_name": "Belgium",
        "name": "Flemish Brabant",
        "code": "VBR",
        "latitude": "50.88154340",
        "longitude": "4.56459700"
    },
    {
        "country_name": "Belgium",
        "name": "Hainaut",
        "code": "WHT",
        "latitude": "50.52570760",
        "longitude": "4.06210170"
    },
    {
        "country_name": "Belgium",
        "name": "Li\u00e8ge",
        "code": "WLG",
        "latitude": "50.63255740",
        "longitude": "5.57966620"
    },
    {
        "country_name": "Belgium",
        "name": "Limburg",
        "code": "VLI",
        "latitude": null,
        "longitude": null
    },
    {
        "country_name": "Belgium",
        "name": "Luxembourg",
        "code": "WLX",
        "latitude": "49.81527300",
        "longitude": "6.12958300"
    },
    {
        "country_name": "Belgium",
        "name": "Namur",
        "code": "WNA",
        "latitude": "50.46738830",
        "longitude": "4.87198540"
    },
    {
        "country_name": "Belgium",
        "name": "Wallonia",
        "code": "WAL",
        "latitude": "50.41756370",
        "longitude": "4.45100660"
    },
    {
        "country_name": "Belgium",
        "name": "Walloon Brabant",
        "code": "WBR",
        "latitude": "50.63324100",
        "longitude": "4.52431500"
    },
    {
        "country_name": "Belgium",
        "name": "West Flanders",
        "code": "VWV",
        "latitude": "40.01793340",
        "longitude": "-105.28067330"
    },
    {
        "country_name": "Belize",
        "name": "Belize District",
        "code": "BZ",
        "latitude": "17.56776790",
        "longitude": "-88.40160410"
    },
    {
        "country_name": "Belize",
        "name": "Cayo District",
        "code": "CY",
        "latitude": "17.09844450",
        "longitude": "-88.94138650"
    },
    {
        "country_name": "Belize",
        "name": "Corozal District",
        "code": "CZL",
        "latitude": "18.13492380",
        "longitude": "-88.24611830"
    },
    {
        "country_name": "Belize",
        "name": "Orange Walk District",
        "code": "OW",
        "latitude": "17.76035300",
        "longitude": "-88.86469800"
    },
    {
        "country_name": "Belize",
        "name": "Stann Creek District",
        "code": "SC",
        "latitude": "16.81166310",
        "longitude": "-88.40160410"
    },
    {
        "country_name": "Belize",
        "name": "Toledo District",
        "code": "TOL",
        "latitude": "16.24919230",
        "longitude": "-88.86469800"
    },
    {
        "country_name": "Benin",
        "name": "Alibori Department",
        "code": "AL",
        "latitude": "10.96810930",
        "longitude": "2.77798130"
    },
    {
        "country_name": "Benin",
        "name": "Atakora Department",
        "code": "AK",
        "latitude": "10.79549310",
        "longitude": "1.67606910"
    },
    {
        "country_name": "Benin",
        "name": "Atlantique Department",
        "code": "AQ",
        "latitude": "6.65883910",
        "longitude": "2.22366670"
    },
    {
        "country_name": "Benin",
        "name": "Borgou Department",
        "code": "BO",
        "latitude": "9.53408640",
        "longitude": "2.77798130"
    },
    {
        "country_name": "Benin",
        "name": "Collines Department",
        "code": "CO",
        "latitude": "8.30222970",
        "longitude": "2.30244600"
    },
    {
        "country_name": "Benin",
        "name": "Donga Department",
        "code": "DO",
        "latitude": "9.71918670",
        "longitude": "1.67606910"
    },
    {
        "country_name": "Benin",
        "name": "Kouffo Department",
        "code": "KO",
        "latitude": "7.00358940",
        "longitude": "1.75388170"
    },
    {
        "country_name": "Benin",
        "name": "Littoral Department",
        "code": "LI",
        "latitude": "6.38069730",
        "longitude": "2.44063870"
    },
    {
        "country_name": "Benin",
        "name": "Mono Department",
        "code": "MO",
        "latitude": "37.92186080",
        "longitude": "-118.95286450"
    },
    {
        "country_name": "Benin",
        "name": "Ou\u00e9m\u00e9 Department",
        "code": "OU",
        "latitude": "6.61481520",
        "longitude": "2.49999180"
    },
    {
        "country_name": "Benin",
        "name": "Plateau Department",
        "code": "PL",
        "latitude": "7.34451410",
        "longitude": "2.53960300"
    },
    {
        "country_name": "Benin",
        "name": "Zou Department",
        "code": "ZO",
        "latitude": "7.34692680",
        "longitude": "2.06651970"
    },
    {
        "country_name": "Bermuda",
        "name": "Devonshire Parish",
        "code": "DEV",
        "latitude": "32.30380620",
        "longitude": "-64.76069540"
    },
    {
        "country_name": "Bermuda",
        "name": "Hamilton Parish",
        "code": "HA",
        "latitude": "32.34494320",
        "longitude": "-64.72365000"
    },
    {
        "country_name": "Bermuda",
        "name": "Paget Parish",
        "code": "PAG",
        "latitude": "32.28107400",
        "longitude": "-64.77847870"
    },
    {
        "country_name": "Bermuda",
        "name": "Pembroke Parish",
        "code": "PEM",
        "latitude": "32.30076720",
        "longitude": "-64.79626300"
    },
    {
        "country_name": "Bermuda",
        "name": "Saint George's Parish",
        "code": "SGE",
        "latitude": "17.12577590",
        "longitude": "-62.56198110"
    },
    {
        "country_name": "Bermuda",
        "name": "Sandys Parish",
        "code": "SAN",
        "latitude": "32.29995280",
        "longitude": "-64.86741030"
    },
    {
        "country_name": "Bermuda",
        "name": "Smith's Parish,",
        "code": "SMI",
        "latitude": "32.31339660",
        "longitude": "-64.73105880"
    },
    {
        "country_name": "Bermuda",
        "name": "Southampton Parish",
        "code": "SOU",
        "latitude": "32.25400950",
        "longitude": "-64.82590580"
    },
    {
        "country_name": "Bermuda",
        "name": "Warwick Parish",
        "code": "WAR",
        "latitude": "32.26615340",
        "longitude": "-64.80811980"
    },
    {
        "country_name": "Bhutan",
        "name": "Bumthang District",
        "code": "33",
        "latitude": "27.64183900",
        "longitude": "90.67730460"
    },
    {
        "country_name": "Bhutan",
        "name": "Chukha District",
        "code": "12",
        "latitude": "27.07843040",
        "longitude": "89.47421770"
    },
    {
        "country_name": "Bhutan",
        "name": "Dagana District",
        "code": "22",
        "latitude": "27.03228610",
        "longitude": "89.88793040"
    },
    {
        "country_name": "Bhutan",
        "name": "Gasa District",
        "code": "GA",
        "latitude": "28.01858860",
        "longitude": "89.92532330"
    },
    {
        "country_name": "Bhutan",
        "name": "Haa District",
        "code": "13",
        "latitude": "27.26516690",
        "longitude": "89.17059980"
    },
    {
        "country_name": "Bhutan",
        "name": "Lhuntse District",
        "code": "44",
        "latitude": "27.82649890",
        "longitude": "91.13530200"
    },
    {
        "country_name": "Bhutan",
        "name": "Mongar District",
        "code": "42",
        "latitude": "27.26170590",
        "longitude": "91.28910360"
    },
    {
        "country_name": "Bhutan",
        "name": "Paro District",
        "code": "11",
        "latitude": "27.42859490",
        "longitude": "89.41665160"
    },
    {
        "country_name": "Bhutan",
        "name": "Pemagatshel District",
        "code": "43",
        "latitude": "27.00238200",
        "longitude": "91.34692470"
    },
    {
        "country_name": "Bhutan",
        "name": "Punakha District",
        "code": "23",
        "latitude": "27.69037160",
        "longitude": "89.88793040"
    },
    {
        "country_name": "Bhutan",
        "name": "Samdrup Jongkhar District",
        "code": "45",
        "latitude": "26.80356820",
        "longitude": "91.50392070"
    },
    {
        "country_name": "Bhutan",
        "name": "Samtse District",
        "code": "14",
        "latitude": "27.02918320",
        "longitude": "89.05615320"
    },
    {
        "country_name": "Bhutan",
        "name": "Sarpang District",
        "code": "31",
        "latitude": "26.93730410",
        "longitude": "90.48799160"
    },
    {
        "country_name": "Bhutan",
        "name": "Thimphu District",
        "code": "15",
        "latitude": "27.47122160",
        "longitude": "89.63390410"
    },
    {
        "country_name": "Bhutan",
        "name": "Trashigang District",
        "code": "41",
        "latitude": "27.25667950",
        "longitude": "91.75388170"
    },
    {
        "country_name": "Bhutan",
        "name": "Trongsa District",
        "code": "32",
        "latitude": "27.50022690",
        "longitude": "90.50806340"
    },
    {
        "country_name": "Bhutan",
        "name": "Tsirang District",
        "code": "21",
        "latitude": "27.03220700",
        "longitude": "90.18696440"
    },
    {
        "country_name": "Bhutan",
        "name": "Wangdue Phodrang District",
        "code": "24",
        "latitude": "27.45260460",
        "longitude": "90.06749280"
    },
    {
        "country_name": "Bhutan",
        "name": "Zhemgang District",
        "code": "34",
        "latitude": "27.07697500",
        "longitude": "90.82940020"
    },
    {
        "country_name": "Bolivia",
        "name": "Beni Department",
        "code": "B",
        "latitude": "-14.37827470",
        "longitude": "-65.09577920"
    },
    {
        "country_name": "Bolivia",
        "name": "Chuquisaca Department",
        "code": "H",
        "latitude": "-20.02491440",
        "longitude": "-64.14782360"
    },
    {
        "country_name": "Bolivia",
        "name": "Cochabamba Department",
        "code": "C",
        "latitude": "-17.56816750",
        "longitude": "-65.47573600"
    },
    {
        "country_name": "Bolivia",
        "name": "La Paz Department",
        "code": "L",
        "latitude": null,
        "longitude": null
    },
    {
        "country_name": "Bolivia",
        "name": "Oruro Department",
        "code": "O",
        "latitude": "-18.57115790",
        "longitude": "-67.76159830"
    },
    {
        "country_name": "Bolivia",
        "name": "Pando Department",
        "code": "N",
        "latitude": "-10.79889010",
        "longitude": "-66.99880110"
    },
    {
        "country_name": "Bolivia",
        "name": "Potos\u00ed Department",
        "code": "P",
        "latitude": "-20.62471300",
        "longitude": "-66.99880110"
    },
    {
        "country_name": "Bolivia",
        "name": "Santa Cruz Department",
        "code": "S",
        "latitude": "-16.74760370",
        "longitude": "-62.07509980"
    },
    {
        "country_name": "Bolivia",
        "name": "Tarija Department",
        "code": "T",
        "latitude": "-21.58315950",
        "longitude": "-63.95861110"
    },
    {
        "country_name": "Bonaire, Sint Eustatius and Saba",
        "name": "Bonaire",
        "code": "BQ1",
        "latitude": "12.20189020",
        "longitude": "-68.26238220"
    },
    {
        "country_name": "Bonaire, Sint Eustatius and Saba",
        "name": "Saba",
        "code": "BQ2",
        "latitude": "17.63546420",
        "longitude": "-63.23267630"
    },
    {
        "country_name": "Bonaire, Sint Eustatius and Saba",
        "name": "Sint Eustatius",
        "code": "BQ3",
        "latitude": "17.48903060",
        "longitude": "-62.97355500"
    },
    {
        "country_name": "Bosnia and Herzegovina",
        "name": "Bosnian Podrinje Canton",
        "code": "05",
        "latitude": "43.68749000",
        "longitude": "18.82443940"
    },
    {
        "country_name": "Bosnia and Herzegovina",
        "name": "Br\u010dko District",
        "code": "BRC",
        "latitude": "44.84059440",
        "longitude": "18.74215300"
    },
    {
        "country_name": "Bosnia and Herzegovina",
        "name": "Canton 10",
        "code": "10",
        "latitude": "43.95341550",
        "longitude": "16.94251870"
    },
    {
        "country_name": "Bosnia and Herzegovina",
        "name": "Central Bosnia Canton",
        "code": "06",
        "latitude": "44.13818560",
        "longitude": "17.68667140"
    },
    {
        "country_name": "Bosnia and Herzegovina",
        "name": "Federation of Bosnia and Herzegovina",
        "code": "BIH",
        "latitude": "43.88748970",
        "longitude": "17.84279300"
    },
    {
        "country_name": "Bosnia and Herzegovina",
        "name": "Herzegovina-Neretva Canton",
        "code": "07",
        "latitude": "43.52651590",
        "longitude": "17.76362100"
    },
    {
        "country_name": "Bosnia and Herzegovina",
        "name": "Posavina Canton",
        "code": "02",
        "latitude": "45.07520940",
        "longitude": "18.37763040"
    },
    {
        "country_name": "Bosnia and Herzegovina",
        "name": "Republika Srpska",
        "code": "SRP",
        "latitude": "44.72801860",
        "longitude": "17.31481360"
    },
    {
        "country_name": "Bosnia and Herzegovina",
        "name": "Sarajevo Canton",
        "code": "09",
        "latitude": "43.85125640",
        "longitude": "18.29534420"
    },
    {
        "country_name": "Bosnia and Herzegovina",
        "name": "Tuzla Canton",
        "code": "03",
        "latitude": "44.53434630",
        "longitude": "18.69727970"
    },
    {
        "country_name": "Bosnia and Herzegovina",
        "name": "Una-Sana Canton",
        "code": "01",
        "latitude": "44.65031160",
        "longitude": "16.31716290"
    },
    {
        "country_name": "Bosnia and Herzegovina",
        "name": "West Herzegovina Canton",
        "code": "08",
        "latitude": "43.43692440",
        "longitude": "17.38488310"
    },
    {
        "country_name": "Bosnia and Herzegovina",
        "name": "Zenica-Doboj Canton",
        "code": "04",
        "latitude": "44.21271090",
        "longitude": "18.16046250"
    },
    {
        "country_name": "Botswana",
        "name": "Central District",
        "code": "CE",
        "latitude": null,
        "longitude": null
    },
    {
        "country_name": "Botswana",
        "name": "Ghanzi District",
        "code": "GH",
        "latitude": "-21.86523140",
        "longitude": "21.85685860"
    },
    {
        "country_name": "Botswana",
        "name": "Kgalagadi District",
        "code": "KG",
        "latitude": "-24.75502850",
        "longitude": "21.85685860"
    },
    {
        "country_name": "Botswana",
        "name": "Kgatleng District",
        "code": "KL",
        "latitude": "-24.19704450",
        "longitude": "26.23046160"
    },
    {
        "country_name": "Botswana",
        "name": "Kweneng District",
        "code": "KW",
        "latitude": "-23.83672490",
        "longitude": "25.28375850"
    },
    {
        "country_name": "Botswana",
        "name": "Ngamiland",
        "code": "NG",
        "latitude": "-19.19053210",
        "longitude": "23.00119890"
    },
    {
        "country_name": "Botswana",
        "name": "North-East District",
        "code": "NE",
        "latitude": "37.58844610",
        "longitude": "-94.68637820"
    },
    {
        "country_name": "Botswana",
        "name": "North-West District",
        "code": "NW",
        "latitude": "39.34463070",
        "longitude": "-76.68542830"
    },
    {
        "country_name": "Botswana",
        "name": "South-East District",
        "code": "SE",
        "latitude": "31.21637980",
        "longitude": "-82.35270440"
    },
    {
        "country_name": "Botswana",
        "name": "Southern District",
        "code": "SO",
        "latitude": null,
        "longitude": null
    },
    {
        "country_name": "Brazil",
        "name": "Acre",
        "code": "AC",
        "latitude": "-9.02379600",
        "longitude": "-70.81199500"
    },
    {
        "country_name": "Brazil",
        "name": "Alagoas",
        "code": "AL",
        "latitude": "-9.57130580",
        "longitude": "-36.78195050"
    },
    {
        "country_name": "Brazil",
        "name": "Amap\u00e1",
        "code": "AP",
        "latitude": "0.90199250",
        "longitude": "-52.00295650"
    },
    {
        "country_name": "Brazil",
        "name": "Amazonas",
        "code": "AM",
        "latitude": "-3.07000000",
        "longitude": "-61.66000000"
    },
    {
        "country_name": "Brazil",
        "name": "Bahia",
        "code": "BA",
        "latitude": "-11.40987400",
        "longitude": "-41.28085700"
    },
    {
        "country_name": "Brazil",
        "name": "Cear\u00e1",
        "code": "CE",
        "latitude": "-5.49839770",
        "longitude": "-39.32062410"
    },
    {
        "country_name": "Brazil",
        "name": "Distrito Federal",
        "code": "DF",
        "latitude": "-15.79976540",
        "longitude": "-47.86447150"
    },
    {
        "country_name": "Brazil",
        "name": "Esp\u00edrito Santo",
        "code": "ES",
        "latitude": "-19.18342290",
        "longitude": "-40.30886260"
    },
    {
        "country_name": "Brazil",
        "name": "Goi\u00e1s",
        "code": "GO",
        "latitude": "-15.82703690",
        "longitude": "-49.83622370"
    },
    {
        "country_name": "Brazil",
        "name": "Maranh\u00e3o",
        "code": "MA",
        "latitude": "-4.96094980",
        "longitude": "-45.27441590"
    },
    {
        "country_name": "Brazil",
        "name": "Mato Grosso",
        "code": "MT",
        "latitude": "-12.68187120",
        "longitude": "-56.92109900"
    },
    {
        "country_name": "Brazil",
        "name": "Mato Grosso do Sul",
        "code": "MS",
        "latitude": "-20.77222950",
        "longitude": "-54.78515310"
    },
    {
        "country_name": "Brazil",
        "name": "Minas Gerais",
        "code": "MG",
        "latitude": "-18.51217800",
        "longitude": "-44.55503080"
    },
    {
        "country_name": "Brazil",
        "name": "Par\u00e1",
        "code": "PA",
        "latitude": "-1.99812710",
        "longitude": "-54.93061520"
    },
    {
        "country_name": "Brazil",
        "name": "Para\u00edba",
        "code": "PB",
        "latitude": "-7.23996090",
        "longitude": "-36.78195050"
    },
    {
        "country_name": "Brazil",
        "name": "Paran\u00e1",
        "code": "PR",
        "latitude": "-25.25208880",
        "longitude": "-52.02154150"
    },
    {
        "country_name": "Brazil",
        "name": "Pernambuco",
        "code": "PE",
        "latitude": "-8.81371730",
        "longitude": "-36.95410700"
    },
    {
        "country_name": "Brazil",
        "name": "Piau\u00ed",
        "code": "PI",
        "latitude": "-7.71834010",
        "longitude": "-42.72892360"
    },
    {
        "country_name": "Brazil",
        "name": "Rio de Janeiro",
        "code": "RJ",
        "latitude": "-22.90684670",
        "longitude": "-43.17289650"
    },
    {
        "country_name": "Brazil",
        "name": "Rio Grande do Norte",
        "code": "RN",
        "latitude": "-5.40258030",
        "longitude": "-36.95410700"
    },
    {
        "country_name": "Brazil",
        "name": "Rio Grande do Sul",
        "code": "RS",
        "latitude": "-30.03463160",
        "longitude": "-51.21769860"
    },
    {
        "country_name": "Brazil",
        "name": "Rond\u00f4nia",
        "code": "RO",
        "latitude": "-11.50573410",
        "longitude": "-63.58061100"
    },
    {
        "country_name": "Brazil",
        "name": "Roraima",
        "code": "RR",
        "latitude": "2.73759710",
        "longitude": "-62.07509980"
    },
    {
        "country_name": "Brazil",
        "name": "Santa Catarina",
        "code": "SC",
        "latitude": "-27.33000000",
        "longitude": "-49.44000000"
    },
    {
        "country_name": "Brazil",
        "name": "S\u00e3o Paulo",
        "code": "SP",
        "latitude": "-23.55051990",
        "longitude": "-46.63330940"
    },
    {
        "country_name": "Brazil",
        "name": "Sergipe",
        "code": "SE",
        "latitude": "-10.57409340",
        "longitude": "-37.38565810"
    },
    {
        "country_name": "Brazil",
        "name": "Tocantins",
        "code": "TO",
        "latitude": "-10.17528000",
        "longitude": "-48.29824740"
    },
    {
        "country_name": "Brunei",
        "name": "Belait District",
        "code": "BE",
        "latitude": "4.37507490",
        "longitude": "114.61928990"
    },
    {
        "country_name": "Brunei",
        "name": "Brunei-Muara District",
        "code": "BM",
        "latitude": "4.93112060",
        "longitude": "114.95168690"
    },
    {
        "country_name": "Brunei",
        "name": "Temburong District",
        "code": "TE",
        "latitude": "4.62041280",
        "longitude": "115.14148400"
    },
    {
        "country_name": "Brunei",
        "name": "Tutong District",
        "code": "TU",
        "latitude": "4.71403730",
        "longitude": "114.66679390"
    },
    {
        "country_name": "Bulgaria",
        "name": "Blagoevgrad Province",
        "code": "01",
        "latitude": "42.02086140",
        "longitude": "23.09433560"
    },
    {
        "country_name": "Bulgaria",
        "name": "Burgas Province",
        "code": "02",
        "latitude": "42.50480000",
        "longitude": "27.46260790"
    },
    {
        "country_name": "Bulgaria",
        "name": "Dobrich Province",
        "code": "08",
        "latitude": "43.57278600",
        "longitude": "27.82728020"
    },
    {
        "country_name": "Bulgaria",
        "name": "Gabrovo Province",
        "code": "07",
        "latitude": "42.86847000",
        "longitude": "25.31688900"
    },
    {
        "country_name": "Bulgaria",
        "name": "Haskovo Province",
        "code": "26",
        "latitude": "41.93441780",
        "longitude": "25.55546720"
    },
    {
        "country_name": "Bulgaria",
        "name": "Kardzhali Province",
        "code": "09",
        "latitude": "41.63384160",
        "longitude": "25.37766870"
    },
    {
        "country_name": "Bulgaria",
        "name": "Kyustendil Province",
        "code": "10",
        "latitude": "42.28687990",
        "longitude": "22.69396350"
    },
    {
        "country_name": "Bulgaria",
        "name": "Lovech Province",
        "code": "11",
        "latitude": "43.13677980",
        "longitude": "24.71393350"
    },
    {
        "country_name": "Bulgaria",
        "name": "Montana Province",
        "code": "12",
        "latitude": "43.40851480",
        "longitude": "23.22575890"
    },
    {
        "country_name": "Bulgaria",
        "name": "Pazardzhik Province",
        "code": "13",
        "latitude": "42.19275670",
        "longitude": "24.33362260"
    },
    {
        "country_name": "Bulgaria",
        "name": "Pernik Province",
        "code": "14",
        "latitude": "42.60519900",
        "longitude": "23.03779160"
    },
    {
        "country_name": "Bulgaria",
        "name": "Pleven Province",
        "code": "15",
        "latitude": "43.41701690",
        "longitude": "24.60667080"
    },
    {
        "country_name": "Bulgaria",
        "name": "Plovdiv Province",
        "code": "16",
        "latitude": "42.13540790",
        "longitude": "24.74529040"
    },
    {
        "country_name": "Bulgaria",
        "name": "Razgrad Province",
        "code": "17",
        "latitude": "43.52717050",
        "longitude": "26.52412280"
    },
    {
        "country_name": "Bulgaria",
        "name": "Ruse Province",
        "code": "18",
        "latitude": "43.83559640",
        "longitude": "25.96561440"
    },
    {
        "country_name": "Bulgaria",
        "name": "Shumen",
        "code": "27",
        "latitude": "43.27123980",
        "longitude": "26.93612860"
    },
    {
        "country_name": "Bulgaria",
        "name": "Silistra Province",
        "code": "19",
        "latitude": "44.11471010",
        "longitude": "27.26714540"
    },
    {
        "country_name": "Bulgaria",
        "name": "Sliven Province",
        "code": "20",
        "latitude": "42.68167020",
        "longitude": "26.32285690"
    },
    {
        "country_name": "Bulgaria",
        "name": "Smolyan Province",
        "code": "21",
        "latitude": "41.57741480",
        "longitude": "24.70108710"
    },
    {
        "country_name": "Bulgaria",
        "name": "Sofia City Province",
        "code": "22",
        "latitude": "42.75701090",
        "longitude": "23.45046830"
    },
    {
        "country_name": "Bulgaria",
        "name": "Sofia Province",
        "code": "23",
        "latitude": "42.67344000",
        "longitude": "23.83349370"
    },
    {
        "country_name": "Bulgaria",
        "name": "Stara Zagora Province",
        "code": "24",
        "latitude": "42.42577090",
        "longitude": "25.63448550"
    },
    {
        "country_name": "Bulgaria",
        "name": "Targovishte Province",
        "code": "25",
        "latitude": "43.24623490",
        "longitude": "26.56912510"
    },
    {
        "country_name": "Bulgaria",
        "name": "Varna Province",
        "code": "03",
        "latitude": "43.20464770",
        "longitude": "27.91054880"
    },
    {
        "country_name": "Bulgaria",
        "name": "Veliko Tarnovo Province",
        "code": "04",
        "latitude": "43.07565390",
        "longitude": "25.61715000"
    },
    {
        "country_name": "Bulgaria",
        "name": "Vidin Province",
        "code": "05",
        "latitude": "43.99617390",
        "longitude": "22.86795150"
    },
    {
        "country_name": "Bulgaria",
        "name": "Vratsa Province",
        "code": "06",
        "latitude": "43.21018060",
        "longitude": "23.55292100"
    },
    {
        "country_name": "Bulgaria",
        "name": "Yambol Province",
        "code": "28",
        "latitude": "42.48414940",
        "longitude": "26.50352960"
    },
    {
        "country_name": "Burkina Faso",
        "name": "Bal\u00e9 Province",
        "code": "BAL",
        "latitude": "11.78206020",
        "longitude": "-3.01757120"
    },
    {
        "country_name": "Burkina Faso",
        "name": "Bam Province",
        "code": "BAM",
        "latitude": "13.44613300",
        "longitude": "-1.59839590"
    },
    {
        "country_name": "Burkina Faso",
        "name": "Banwa Province",
        "code": "BAN",
        "latitude": "12.13230530",
        "longitude": "-4.15137640"
    },
    {
        "country_name": "Burkina Faso",
        "name": "Baz\u00e8ga Province",
        "code": "BAZ",
        "latitude": "11.97676920",
        "longitude": "-1.44346900"
    },
    {
        "country_name": "Burkina Faso",
        "name": "Boucle du Mouhoun Region",
        "code": "01",
        "latitude": "12.41660000",
        "longitude": "-3.41955270"
    },
    {
        "country_name": "Burkina Faso",
        "name": "Bougouriba Province",
        "code": "BGR",
        "latitude": "10.87226460",
        "longitude": "-3.33889170"
    },
    {
        "country_name": "Burkina Faso",
        "name": "Boulgou",
        "code": "BLG",
        "latitude": "11.43367660",
        "longitude": "-0.37483540"
    },
    {
        "country_name": "Burkina Faso",
        "name": "Cascades Region",
        "code": "02",
        "latitude": "10.40729920",
        "longitude": "-4.56244260"
    },
    {
        "country_name": "Burkina Faso",
        "name": "Centre",
        "code": "03",
        "latitude": null,
        "longitude": null
    },
    {
        "country_name": "Burkina Faso",
        "name": "Centre-Est Region",
        "code": "04",
        "latitude": "11.52476740",
        "longitude": "-0.14949880"
    },
    {
        "country_name": "Burkina Faso",
        "name": "Centre-Nord Region",
        "code": "05",
        "latitude": "13.17244640",
        "longitude": "-0.90566230"
    },
    {
        "country_name": "Burkina Faso",
        "name": "Centre-Ouest Region",
        "code": "06",
        "latitude": "11.87984660",
        "longitude": "-2.30244600"
    },
    {
        "country_name": "Burkina Faso",
        "name": "Centre-Sud Region",
        "code": "07",
        "latitude": "11.52289110",
        "longitude": "-1.05861350"
    },
    {
        "country_name": "Burkina Faso",
        "name": "Como\u00e9 Province",
        "code": "COM",
        "latitude": "10.40729920",
        "longitude": "-4.56244260"
    },
    {
        "country_name": "Burkina Faso",
        "name": "Est Region",
        "code": "08",
        "latitude": "12.43655260",
        "longitude": "0.90566230"
    },
    {
        "country_name": "Burkina Faso",
        "name": "Ganzourgou Province",
        "code": "GAN",
        "latitude": "12.25376480",
        "longitude": "-0.75328090"
    },
    {
        "country_name": "Burkina Faso",
        "name": "Gnagna Province",
        "code": "GNA",
        "latitude": "12.89749920",
        "longitude": "0.07467670"
    },
    {
        "country_name": "Burkina Faso",
        "name": "Gourma Province",
        "code": "GOU",
        "latitude": "12.16244730",
        "longitude": "0.67730460"
    },
    {
        "country_name": "Burkina Faso",
        "name": "Hauts-Bassins Region",
        "code": "09",
        "latitude": "11.49420030",
        "longitude": "-4.23333550"
    },
    {
        "country_name": "Burkina Faso",
        "name": "Houet Province",
        "code": "HOU",
        "latitude": "11.13204470",
        "longitude": "-4.23333550"
    },
    {
        "country_name": "Burkina Faso",
        "name": "Ioba Province",
        "code": "IOB",
        "latitude": "11.05620340",
        "longitude": "-3.01757120"
    },
    {
        "country_name": "Burkina Faso",
        "name": "Kadiogo Province",
        "code": "KAD",
        "latitude": "12.34258970",
        "longitude": "-1.44346900"
    },
    {
        "country_name": "Burkina Faso",
        "name": "K\u00e9n\u00e9dougou Province",
        "code": "KEN",
        "latitude": "11.39193950",
        "longitude": "-4.97665400"
    },
    {
        "country_name": "Burkina Faso",
        "name": "Komondjari Province",
        "code": "KMD",
        "latitude": "12.71265270",
        "longitude": "0.67730460"
    },